     2.11           OBSERVATION DATA    G                   RINEX VERSION / TYPE
SpecSurv v4.22                          16-Jun-25 11:47     PGM / RUN BY / DATE 
gfzrnx-2.1.12       FILE PROCESSING     20250618 013428 UTC COMMENT             
00062970                                                    MARKER NAME         
                                                            MARKER NUMBER       
                                                            OBSERVER / AGENCY   
07430006                                169-614678-005      REC # / TYPE / VERS 
                    <None>          NONE                    ANT # / TYPE        
        1.6210        0.0000        0.0000                  ANTENNA: DELTA H/E/N
  3983111.1141 -4353255.8644 -2415209.4077                  APPROX POSITION XYZ 
     2    C1    L1                                          # / TYPES OF OBSERV 
     1     1                                                WAVELENGTH FACT L1/2
     1     0     7   G 6   G11   G12   G13   G14   G15   G17WAVELENGTH FACT L1/2
     1     0     4   G19   G22   G24   G30                  WAVELENGTH FACT L1/2
GFZRNX.NUM_EPOCHS: 513                                      COMMENT
    11                                                      # OF SATELLITES     
   G06   439   439                                          PRN / # OF OBS      
   G11   513   513                                          PRN / # OF OBS      
   G12   301   267                                          PRN / # OF OBS      
   G13   512   512                                          PRN / # OF OBS      
   G14    68    61                                          PRN / # OF OBS      
   G15   419   417                                          PRN / # OF OBS      
   G17   502   491                                          PRN / # OF OBS      
   G19   513   513                                          PRN / # OF OBS      
   G22   370   352                                          PRN / # OF OBS      
   G24   304   302                                          PRN / # OF OBS      
   G30   394   373                                          PRN / # OF OBS      
    10.000                                                  INTERVAL            
  2025    10    20    17    43    0.0000000     GPS         TIME OF FIRST OBS   
  2025    10    20    19     8   20.0000000     GPS         TIME OF LAST OBS    
                                                            END OF HEADER      
 25 10 20 17 43 00.0000000  0  5G11G13G17G19G30                     
  24999928.143      992154.0520 
  20178152.066     1017012.6990 
  21025099.272     1027793.1450 
  19981192.475     1017456.8370 
  22862331.438     1029122.5010 
 25 10 20 17 43 10.0000000  0  5G11G13G17G19G30                     
  24994953.785      922252.7640 
  20179032.170      977883.6750 
  21028510.386     1001962.3290 
  19982177.036      978876.6810 
  22866049.484     1004908.7690 
 25 10 20 17 43 20.0000000  0  5G11G13G17G19G30                     
  24989974.243      852334.7650 
  20179924.978      938827.4540 
  21031931.342      976191.9990 
  19983174.301      940370.0510 
  22869772.651      980730.3150 
 25 10 20 17 43 30.0000000  0  5G11G13G17G19G30                     
  24984992.168      782399.9440 
  20180832.281      899843.7990 
  21035364.360      950481.8560 
  19984186.347      901936.7260 
  22873503.443      956587.0310 
 25 10 20 17 43 40.0000000  0  5G11G13G17G19G30                     
  24980005.409      712448.1450 
  20181751.927      860932.5210 
  21038808.005      924831.5260 
  19985211.023      863576.3580 
  22877240.855      932478.5750 
 25 10 20 17 43 50.0000000  0  5G11G13G17G19G30                     
  24975014.454      642478.6300 
  20182684.262      822092.7240 
  21042261.333      899240.1580 
  19986248.244      825288.0930 
  22880983.229      908404.1430 
 25 10 20 17 44 00.0000000  0  5G11G13G17G19G30                     
  24970018.787      572489.4520 
  20183630.201      783322.3500 
  21045725.976      873705.7030 
  19987298.640      787070.0010 
  22884730.621      884361.7720 
 25 10 20 17 44 10.0000000  0  5G11G13G17G19G30                     
  24965018.939      502484.0570 
  20184589.129      744624.8170 
  21049201.606      848231.4620 
  19988363.313      748925.2980 
  22888485.709      860354.7910 
 25 10 20 17 44 20.0000000  0  5G11G13G17G19G30                     
  24960015.355      432462.5370 
  20185561.922      706000.1330 
  21052687.665      822817.3630 
  19989440.850      710853.9690 
  22892246.219      836383.2710 
 25 10 20 17 44 30.0000000  0  5G11G13G17G19G30                     
  24955009.584      362421.7240 
  20186548.126      667445.0660 
  21056185.132      797460.1600 
  19990532.655      672852.8100 
  22896014.559      812443.9710 
 25 10 20 17 44 40.0000000  0  5G11G13G17G19G30                     
  24949999.498      292360.7710 
  20187546.756      628958.5970 
  21059692.306      772158.6660 
  19991636.744      634920.8300 
  22899788.027      788535.9270 
 25 10 20 17 44 50.0000000  0  5G11G13G17G19G30                     
  24944984.855      222280.2170 
  20188558.000      590541.2040 
  21063209.090      746913.3350 
  19992752.731      597058.4420 
  22903566.670      764659.6270 
 25 10 20 17 45 00.0000000  0  5G11G13G17G19G30                     
  24939962.322      152180.2630 
  20189579.240      552192.8600 
  21066735.011      721724.1420 
  19993879.716      559265.6070 
  22907347.581      740815.0710 
 25 10 20 17 45 10.0000000  0  5G11G13G17G19G30                     
  24934937.248       82060.5610 
  20190613.680      513913.2660 
  21070271.413      696590.7270 
  19995020.616      521542.0530 
  22911134.679      717002.0310 
 25 10 20 17 45 20.0000000  0  5G11G13G17G19G30                     
  24929911.147       11920.6050 
  20191662.261      475701.7450 
  21073818.379      671512.4770 
  19996175.085      483887.0100 
  22914930.196      693219.7520 
 25 10 20 17 45 30.0000000  0  5G11G13G17G19G30                     
  24924879.149      -58238.2850 
  20192721.829      437559.4870 
  21077374.471      646490.2250 
  19997340.970      446301.7060 
  22918729.259      669469.5440 
 25 10 20 17 45 40.0000000  0  5G11G13G17G19G30                     
  24919840.976     -128416.2520 
  20193792.250      399486.2830 
  21080939.272      621523.7780 
  19998517.566      408785.8820 
  22922531.448      645751.1240 
 25 10 20 17 45 50.0000000  0  5G11G13G17G19G30                     
  24914797.234     -198614.0040 
  20194873.415      361481.2840 
  21084512.811      596612.3380 
  19999704.905      371338.7420 
  22926336.797      622063.7390 
 25 10 20 17 46 00.0000000  0  5G11G13G17G19G30                     
  24909750.148     -268831.2850 
  20195968.836      323544.8610 
  21088097.745      571755.9680 
  20000906.214      333960.4270 
  22930149.533      598407.6040 
 25 10 20 17 46 10.0000000  0  5G11G13G17G19G30                     
  24904697.993     -339068.0250 
  20197075.929      285676.7330 
  21091691.490      546954.5770 
  20002119.338      296650.8150 
  22933966.072      574782.6290 
 25 10 20 17 46 20.0000000  0  5G11G13G17G19G30                     
  24899643.288     -409324.6300 
  20198198.789      247876.4380 
  21095298.426      522207.6290 
  20003348.086      259409.3370 
  22937792.224      551188.3990 
 25 10 20 17 46 30.0000000  0  5G11G13G17G19G30                     
  24894584.607     -479599.8030 
  20199333.126      210145.3050 
  21098914.549      497516.3480 
  20004588.454      222237.2100 
  22941622.985      527626.1710 
 25 10 20 17 46 40.0000000  0  5G11G13G17G19G30                     
  24889520.795     -549892.8480 
  20200477.643      172483.8250 
  21102538.706      472881.0990 
  20005840.147      185135.0720 
  22945456.629      504096.4450 
 25 10 20 17 46 50.0000000  0  5G11G13G17G19G30                     
  24884454.238     -620204.2570 
  20201636.729      134891.4600 
  21106173.855      448301.2780 
  20007106.409      148102.3560 
  22949297.831      480598.7390 
 25 10 20 17 47 00.0000000  0  5G11G13G17G19G30                     
  24879386.779     -690533.8740 
  20202812.085       97368.2020 
  21109822.125      423777.0810 
  20008388.082      111139.0160 
  22953148.003      457133.0360 
 25 10 20 17 47 10.0000000  0  5G11G13G17G19G30                     
  24874312.469     -760882.6660 
  20203999.620       59912.9550 
  21113480.285      399307.1730 
  20009681.649       74243.9490 
  22957003.201      433698.2920 
 25 10 20 17 47 20.0000000  0  5G11G13G17G19G30                     
  24869233.649     -831250.8900 
  20205197.528       22525.4260 
  21117146.386      374891.0960 
  20010985.588       37416.7310 
  22960862.190      410294.2300 
 25 10 20 17 47 30.0000000  0  5G11G13G17G19G30                     
  24864152.902     -901637.9880 
  20206410.536      -14794.0360 
  21120824.868      350529.2170 
  20012305.199         657.7890 
  22964729.410      386921.3290 
 25 10 20 17 47 40.0000000  0  5G11G13G17G19G30                     
  24859068.663     -972043.7020 
  20207634.218      -52045.1410 
  21124511.305      326221.7140 
  20013636.057      -36032.7070 
  22968601.437      363579.7300 
 25 10 20 17 47 50.0000000  0  5G11G13G17G19G30                     
  24853979.805    -1042468.2860 
  20208874.601      -89228.3220 
  21128212.583      301968.0900 
  20014983.616      -72655.2390 
  22972482.010      340269.1010 
 25 10 20 17 48 00.0000000  0  5G11G13G17G19G30                     
  24848884.671    -1112912.2500 
  20210123.019     -126344.1330 
  21131919.034      277767.8500 
  20016339.353     -109210.2700 
  22976361.458      316988.7910 
 25 10 20 17 48 10.0000000  0  5G11G13G17G19G30                     
  24843782.596    -1183375.2650 
  20211378.518     -163392.4630 
  21135630.706      253620.9640 
  20017702.314     -145697.7270 
  22980240.977      293739.1320 
 25 10 20 17 48 20.0000000  0  5G11G13G17G19G30                     
  24838680.530    -1253857.1120 
  20212651.197     -200373.1570 
  21139355.980      229527.6100 
  20019081.596     -182117.4340 
  22984133.669      270520.2360 
 25 10 20 17 48 30.0000000  0  5G11G13G17G19G30                     
  24833575.460    -1324356.8320 
  20213937.900     -237285.3640 
  21143091.988      205488.6250 
  20020474.760     -218468.4800 
  22988031.800      247332.9180 
 25 10 20 17 48 40.0000000  0  5G11G13G17G19G30                     
  24828461.411    -1394875.1360 
  20215230.362     -274129.8910 
  21146832.180      181503.0550 
  20021873.683     -254751.8380 
  22991928.249      224176.4520 
 25 10 20 17 48 50.0000000  0  5G11G13G17G19G30                     
  24823347.949    -1465412.1290 
  20216539.725     -310907.0190 
  21150585.267      157570.8050 
  20023289.362     -290967.7660 
  22995835.159      201050.5840 
 25 10 20 17 49 00.0000000  0  5G11G13G17G19G30                     
  24818229.392    -1535967.9090 
  20217860.162     -347616.7860 
  21154346.852      133691.4060 
  20024716.832     -327116.3150 
  22999745.273      177955.2420 
 25 10 20 17 49 10.0000000  0  5G11G13G17G19G30                     
  24813103.910    -1606542.4740 
  20219190.843     -384259.4830 
  21158116.821      109864.6600 
  20026154.975     -363197.7690 
  23003658.764      154890.1630 
 25 10 20 17 49 20.0000000  0  5G11G13G17G19G30                     
  24807981.126    -1677136.4120 
  20220539.249     -420835.7410 
  21161901.081       86089.8800 
  20027610.843     -399212.8480 
  23007585.543      131854.8700 
 25 10 20 17 49 30.0000000  0  5G11G13G17G19G30                     
  24802851.169    -1747750.3940 
  20221898.940     -457346.2880 
  21165693.334       62366.1510 
  20029076.422     -435162.3600 
  23011513.877      108848.5710 
 25 10 20 17 49 40.0000000  0  5G11G13G17G19G30                     
  24797713.714    -1818383.5030 
  20223267.731     -493790.3710 
  21169492.112       38694.2280 
  20030551.387     -471045.5920 
  23015441.581       85871.9760 
 25 10 20 17 49 50.0000000  0  5G11G13G17G19G30                     
  24792581.589    -1889036.0390 
  20224659.453     -530168.4490 
  21173310.102       15073.6730 
  20032049.713     -506862.9270 
  23019389.927       62924.6980 
 25 10 20 17 50 00.0000000  0  5G11G13G17G19G30                     
  24787442.567    -1959708.7930 
  20226058.158     -566481.4060 
  21177134.357       -8496.3680 
  20033555.451     -542615.1860 
  23023340.533       40006.0010 
 25 10 20 17 50 10.0000000  0  5G11G13G17G19G30                     
  24782297.456    -2030401.8920 
  20227467.229     -602729.5080 
  21180966.547      -32016.3040 
  20035070.982     -578302.7830 
  23027292.491       17115.4910 
 25 10 20 17 50 20.0000000  0  5G11G13G17G19G30                     
  24777147.899    -2101114.7580 
  20228888.167     -638912.2040 
  21184807.312      -55485.7480 
  20036597.808     -613925.1510 
  23031249.017       -5746.2330 
 25 10 20 17 50 30.0000000  0  5G11G13G17G19G30                     
  24771996.031    -2171845.9950 
  20230323.536     -675028.2540 
  21188658.073      -78903.3940 
  20038139.065     -649481.0930 
  23035211.533      -28577.8500 
 25 10 20 17 50 40.0000000  0  5G11G13G17G19G30                     
  24766839.203    -2242595.6590 
  20231769.827     -711077.8030 
  21192518.039     -102269.3820 
  20039691.674     -684970.8010 
  23039177.386      -51379.4700 
 25 10 20 17 50 50.0000000  0  5G11G13G17G19G30                     
  24761675.415    -2313363.5900 
  20233224.899     -747060.8680 
  21196385.784     -125583.8170 
  20041253.778     -720394.2580 
  23043146.441      -74151.1890 
 25 10 20 17 51 00.0000000  0  5G11G13G17G19G30                     
  24756513.904    -2384151.2620 
  20234699.277     -782979.0660 
  21200269.113     -148848.4970 
  20042836.333     -755753.0410 
  23047129.792      -96894.4710 
 25 10 20 17 51 10.0000000  0  5G11G13G17G19G30                     
  24751350.495    -2454957.9820 
  20236188.926     -818831.6120 
  21204163.280     -172062.7520 
  20044432.300     -791046.4650 
  23051120.545     -119608.6100 
 25 10 20 17 51 20.0000000  0  5G11G13G17G19G30                     
  24746179.388    -2525783.7070 
  20237683.900     -854618.8070 
  21208060.481     -195226.7850 
  20046033.734     -826274.6900 
  23055108.609     -142293.7910 
 25 10 20 17 51 30.0000000  0  5G11G13G17G19G30                     
  24741006.661    -2596629.4560 
  20239194.567     -890341.6240 
  21211971.372     -218341.7710 
  20047651.577     -861439.0220 
  23059107.645     -164951.0460 
 25 10 20 17 51 40.0000000  0  5G11G13G17G19G30                     
  24735829.728    -2667493.7280 
  20240716.482     -925998.7950 
  21215888.932     -241406.3180 
  20049278.951     -896538.0800 
  23063109.200     -187579.0490 
 25 10 20 17 51 50.0000000  0  5G11G13G17G19G30                     
  24730651.238    -2738376.7180 
  20242254.155     -961590.6230 
  21219818.386     -264420.8660 
  20050921.796     -931572.0590 
  23067118.786     -210178.0080 
 25 10 20 17 52 00.0000000  0  5G11G13G17G19G30                     
  24725467.986    -2809279.2960 
  20243803.664     -997118.1030 
  21223758.246     -287386.4390 
  20052577.766     -966542.0730 
  23071134.055     -232748.9230 
 25 10 20 17 52 10.0000000  0  5G11G13G17G19G30                     
  24720281.098    -2880200.6480 
  20245365.706    -1032580.5480 
  21227707.061     -310302.4370 
  20054245.410    -1001447.4570 
  23075154.988     -255291.1220 
 25 10 20 17 52 20.0000000  0  5G11G13G17G19G30                     
  24715090.136    -2951140.6080 
  20246939.988    -1067978.0040 
  21231665.826     -333168.7870 
  20055925.436    -1036288.1360 
  23079180.864     -277804.4800 
 25 10 20 17 52 30.0000000  0  5G11G13G17G19G30                     
  24709895.805    -3022099.5300 
  20248524.637    -1103310.7410 
  21235631.811     -355985.9290 
  20057615.973    -1071064.5450 
  23083210.524     -300289.3740 
 25 10 20 17 52 40.0000000  0  5G11G13G17G19G30                     
  24704698.621    -3093077.7350 
  20250122.029    -1138579.1910 
  21239607.678     -378754.5190 
  20059319.254    -1105777.2570 
  23087246.776     -322746.2870 
 25 10 20 17 52 50.0000000  0  5G11G13G17G19G30                     
  24699497.773    -3164075.2920 
  20251730.496    -1173783.6450 
  21243591.756     -401474.6900 
  20061033.466    -1140426.4650 
  23091287.376     -345175.3700 
 25 10 20 17 53 00.0000000  0  5G11G13G17G19G30                     
  24694290.736    -3235091.2790 
  20253349.946    -1208923.2190 
  21247584.672     -424145.7200 
  20062759.233    -1175011.3250 
  23095330.946     -367575.7230 
 25 10 20 17 53 10.0000000  0  5G11G13G17G19G30                     
  24689079.955    -3306124.6550 
  20254981.820    -1243997.0720 
  21251585.719     -446766.7080 
  20064496.566    -1209531.0270 
  23099378.641     -389946.5220 
 25 10 20 17 53 20.0000000  0  5G11G13G17G19G30                     
  24683864.795    -3377175.1750 
  20256624.341    -1279005.0870 
  21255595.839     -469337.8050 
  20066244.545    -1243985.4510 
  23103430.973     -412287.5230 
 25 10 20 17 53 30.0000000  0  5G11G13G17G19G30                     
  24678647.210    -3448243.4330 
  20258281.464    -1313947.9460 
  21259616.554     -491859.2880 
  20068005.267    -1278375.2900 
  23107491.325     -434599.4950 
 25 10 20 17 53 40.0000000  0  5G11G13G17G19G30                     
  24673426.196    -3519329.3920 
  20259951.328    -1348825.8050 
  21263646.719     -514331.6970 
  20069779.731    -1312700.6110 
  23111557.120     -456882.4300 
 25 10 20 17 53 50.0000000  0  5G11G13G17G19G30                     
  24668203.869    -3590432.3490 
  20261634.760    -1383637.9470 
  21267688.021     -536754.6020 
  20071568.479    -1346960.9420 
  23115631.189     -479135.7520 
 25 10 20 17 54 00.0000000  0  5G11G13G17G19G30                     
  24662976.793    -3661552.6740 
  20263329.326    -1418385.0790 
  21271737.451     -559128.3350 
  20073368.218    -1381156.7710 
  23119708.236     -501359.9290 
 25 10 20 17 54 10.0000000  0  5G11G13G17G19G30                     
  24657747.727    -3732690.9240 
  20265038.645    -1453067.7630 
  21275798.628     -581453.6360 
  20075183.281    -1415288.8200 
  23123793.882     -523555.6040 
 25 10 20 17 54 20.0000000  0  5G11G13G17G19G30                     
  24652517.913    -3803846.6000 
  20266761.953    -1487685.6390 
  21279870.790     -603730.2690 
  20077012.907    -1449356.7290 
  23127888.366     -545722.3500 
 25 10 20 17 54 30.0000000  0  5G11G13G17G19G30                     
  24647279.820    -3875018.8780 
  20268492.866    -1522238.0270 
  21283947.695     -625957.5980 
  20078848.277    -1483359.6900 
  23131980.869     -567859.4850 
 25 10 20 17 54 40.0000000  0  5G11G13G17G19G30                     
  24642039.782    -3946208.3130 
  20270237.860    -1556725.4990 
  21288034.818     -648136.2730 
  20080697.442    -1517298.4460 
  23136081.728     -589967.5630 
 25 10 20 17 54 50.0000000  0  7G11G12G13G17G19G22G30               
  24636798.721    -4017414.2460 
  24410167.875                  
  20271997.572    -1591147.5980 
  21292132.794     -670265.8770 
  20082560.609    -1551172.5540 
  21833642.709     1034065.4280 
  23140190.579     -612046.0950 
 25 10 20 17 55 00.0000000  0  8G11G12G13G14G17G19G22G30            
  24631554.789    -4088636.2720 
  24407284.817      990290.8100 
  20273769.151    -1625504.1250 
  23043985.689                  
  21296239.490     -692346.1500 
  20084435.930    -1584981.7740 
  21836697.823     1006456.5710 
  23144304.144     -634094.8270 
 25 10 20 17 55 10.0000000  0  8G11G12G13G14G17G19G22G30            
  24626302.354    -4159873.7190 
  24404396.547      931496.9970 
  20275547.967    -1659794.4640 
  23047834.043     1018107.4530 
  21300351.420     -714376.5890 
  20086318.201    -1618725.5780 
  21839749.727      978855.6020 
  23148418.363     -656113.0310 
 25 10 20 17 55 20.0000000  0  9G06G11G12G13G14G17G19G22G30         
  23402225.534     1008047.8830 
  24621059.917    -4231126.4800 
  24401528.004      872719.7190 
  20277351.661    -1694018.5800 
  23051691.822      994680.6490 
  21304484.508     -736357.2180 
  20088226.496    -1652403.9690 
  21842815.063      951262.5400 
  23152550.736     -678100.8050 
 25 10 20 17 55 30.0000000  0  9G06G11G12G13G14G17G19G22G30         
  23397624.637      940206.3190 
  24615808.523    -4302395.4110 
  24398654.655      813957.9710 
  20279160.853    -1728177.4650 
  23055542.792      971249.1450 
  21308620.088     -758289.1740 
  20090139.286    -1686017.9220 
  21845873.877      923676.2590 
  23156679.018     -700059.0270 
 25 10 20 17 55 40.0000000  0  9G06G11G12G13G14G17G19G22G30         
  23393023.500      872378.9810 
  24610548.735    -4373679.5790 
  24395781.354      755212.4700 
  20280978.534    -1762270.3480 
  23059390.804      947813.9830 
  21312760.866     -780171.6230 
  20092059.993    -1719566.6840 
  21848930.877      896097.7130 
  23160810.209     -721986.9410 
 25 10 20 17 55 50.0000000  0  9G06G11G12G13G14G17G19G22G30         
  23388421.879      804565.8310 
  24605285.313    -4444978.9910 
  24392910.143      696483.1310 
  20282808.322    -1796297.3820 
  23063237.473      924374.8890 
  21316910.317     -802004.5040 
  20093992.950    -1753050.4120 
  21851989.681      868526.7350 
  23164948.356     -743884.6190 
 25 10 20 17 56 00.0000000  0  9G06G11G12G13G14G17G19G22G30         
  23383824.974      736765.8490 
  24600021.314    -4516294.8150 
  24390041.502      637768.6910 
  20284652.270    -1830259.8690 
  23067083.135      900930.6960 
  21321071.640     -823789.4140 
  20095940.211    -1786470.4180 
  21855050.770      840961.9910 
  23169095.083     -765753.3050 
 25 10 20 17 56 10.0000000  0  9G06G11G12G13G14G17G19G22G30         
  23379229.053      668980.5150 
  24594753.433    -4587625.4560 
  24387175.849      579070.5130 
  20286506.791    -1864156.3880 
  23070926.060      877482.8090 
  21325240.529     -845525.0520 
  20097898.187    -1819825.3120 
  21858111.841      813404.9240 
  23173247.802     -787591.5120 
 25 10 20 17 56 20.0000000  0  9G06G11G12G13G14G17G19G22G30         
  23374636.281      601209.4450 
  24589480.831    -4658971.4030 
  24384314.775      520388.1810 
  20288373.187    -1897987.4120 
  23074766.696      854030.7090 
  21329417.431     -867212.1260 
  20099867.610    -1853115.7330 
  21861174.343      785854.9460 
  23177403.098     -809399.9090 
 25 10 20 17 56 30.0000000  0  9G06G11G12G13G14G17G19G22G30         
  23370047.353      533451.5190 
  24584205.062    -4730333.8720 
  24381455.828      461720.2530 
  20290251.728    -1931754.3930 
  23078606.884      830573.1780 
  21333603.185     -888851.8220 
  20101848.604    -1886342.9610 
  21864237.828      758310.8730 
  23181562.380     -831179.7450 
 25 10 20 17 56 40.0000000  0 10G06G11G12G13G14G15G17G19G22G30      
  23365458.224      465707.6760 
  24578926.230    -4801711.7590 
  24378599.972      403067.8250 
  20292141.515    -1965456.3680 
  23082445.583      807111.0410 
  22076127.030     1010583.1970 
  21337798.613     -910443.3340 
  20103841.560    -1919506.1970 
  21867300.826      730773.6010 
  23185725.898     -852930.0280 
 25 10 20 17 56 50.0000000  0 10G06G11G12G13G14G15G17G19G22G30      
  23360874.621      397978.6550 
  24573645.054    -4873104.5610 
  24375747.209      344431.0520 
  20294045.700    -1999092.9010 
  23086283.512      783644.7260 
  22074942.147      960722.1480 
  21342005.004     -931986.3530 
  20105848.486    -1952604.9700 
  21870366.774      703243.5000 
  23189897.661     -874650.2820 
 25 10 20 17 57 00.0000000  0 10G06G11G12G13G14G15G17G19G22G30      
  23356293.802      330263.7970 
  24568359.507    -4944512.8950 
  24372896.371      285809.3130 
  20295961.540    -2032664.8120 
  23090123.081      760173.6190 
  22073767.059      910916.6450 
  21346219.330     -953481.6330 
  20107866.780    -1985640.1120 
  21873433.360      675719.8640 
  23194071.921     -896341.2620 
 25 10 20 17 57 10.0000000  0 10G06G11G12G13G14G15G17G19G22G30      
  23351714.794      262563.0140 
  24563072.338    -5015936.8820 
  24370048.060      227202.3450 
  20297890.496    -2066172.3650 
  23093960.740      736697.4060 
  22072603.512      861166.5220 
  21350443.337     -974929.4970 
  20109897.331    -2018611.8620 
  21876501.614      648202.4210 
  23198253.430     -918003.1340 
 25 10 20 17 57 20.0000000  0 10G06G11G12G13G14G15G17G19G22G30      
  23347140.112      194876.6550 
  24557782.053    -5087376.1100 
  24367202.072      168610.5520 
  20299830.790    -2099615.3160 
  23097797.144      713216.5100 
  22071448.012                  
  21354675.820     -996329.6600 
  20111937.789    -2051519.9950 
  21879571.045      620691.4610 
  23202438.692     -939635.6660 
 25 10 20 17 57 30.0000000  0 10G06G11G12G13G14G15G17G19G22G30      
  23342570.821      127205.3610 
  24552489.718    -5158830.0490 
  24364360.043      110034.2780 
  20301784.630    -2132993.0980 
  23101631.069      689731.3210 
  22070307.489      761833.3390 
  21358918.558    -1017681.7530 
  20113993.796    -2084363.9950 
  21882642.147      593187.3650 
  23206634.067     -961238.4610 
 25 10 20 17 57 40.0000000  0 10G06G11G12G13G14G15G17G19G22G30      
  23337999.659       59549.1700 
  24547191.935    -5230298.6760 
  24361517.860       51473.3430 
  20303747.474    -2166305.9660 
  23105465.269      666241.7320 
  22069174.682      712250.6940 
  21363166.866    -1038985.9900 
  20116058.093    -2117144.1300 
  21885712.093      565690.0610 
  23210832.294     -982811.5840 
 25 10 20 17 57 50.0000000  0 10G06G11G12G13G14G15G17G19G22G30      
  23333431.548       -8091.9150 
  24541893.197    -5301782.0130 
  24358680.447       -7072.3640 
  20305723.243    -2199554.0200 
  23109297.370      642747.6640 
  22068054.658      662723.8820 
  21367424.666    -1060242.4610 
  20118134.885    -2149860.6580 
  21888782.945      538199.4820 
  23215036.004    -1004355.0790 
 25 10 20 17 58 00.0000000  0 10G06G11G12G13G14G15G17G19G22G30      
  23328863.981      -75717.8330 
  24536589.422    -5373279.9740 
  24355845.293      -65602.7560 
  20307710.145    -2232737.3290 
  23113128.011      619249.0420 
  22066942.331      613253.0570 
  21371690.449    -1081451.2900 
  20120222.809    -2182513.4660 
  21891854.340      510715.5620 
  23219244.121    -1025868.9470 
 25 10 20 17 58 10.0000000  0 10G06G11G12G13G14G15G17G19G22G30      
  23324302.429     -143328.4750 
  24531283.792    -5444792.5310 
  24353013.293     -124118.0390 
  20309710.788    -2265856.0120 
  23116958.656      595745.7420 
  22065837.594      563837.8880 
  21375966.111    -1102612.8810 
  20122324.618    -2215102.7180 
  21894929.890      483238.1400 
  23223458.826    -1047353.3930 
 25 10 20 17 58 20.0000000  0 10G06G11G12G13G14G15G17G19G22G30      
  23319742.035     -210924.1620 
  24525974.169    -5516320.0200 
  24350183.453     -182618.6180 
  20311723.035    -2298910.5070 
  23120780.301                  
  22064743.459      514478.1250 
  21380248.941    -1123727.5930 
  20124437.173    -2247628.8750 
  21898004.166      455766.8210 
  23227678.696    -1068808.7920 
 25 10 20 17 58 30.0000000  0  9G06G11G12G13G15G17G19G22G30         
  23315184.252     -278503.7940 
  24520661.290    -5587861.3560 
  24347357.369     -241103.4770 
  20313747.195    -2331899.8560 
  22063664.097      465174.8170 
  21384540.678    -1144794.5490 
  20126560.924    -2280090.9860 
  21901079.907      428302.5950 
  23231903.752    -1090234.0750 
 25 10 20 17 58 40.0000000  0 10G06G11G12G13G14G15G17G19G22G30      
  23310636.415     -346067.2520 
  24515352.633    -5659416.4820 
  24344537.653     -299572.8850 
  20315790.458    -2364824.1590 
  23128437.901     1038722.0830 
  22062603.125      415927.7730 
  21388850.088    -1165813.9030 
  20128703.923    -2312489.1720 
  21904162.305      400845.2440 
  23236140.758    -1111629.3940 
 25 10 20 17 58 50.0000000  0 10G06G11G12G13G14G15G17G19G22G30      
  23306082.531     -413615.1620 
  24510034.495    -5730986.0070 
  24341714.465     -358027.4760 
  20317837.118    -2397684.2340 
  23132265.196     1015201.0120 
  22061545.691      366736.2710 
  21393159.603    -1186786.3620 
  20130850.890    -2344824.2790 
  21907238.510      373394.1970 
  23240373.862    -1132995.4170 
 25 10 20 17 59 00.0000000  0 10G06G11G12G13G14G15G17G19G22G30      
  23301531.504     -481146.9380 
  24504713.920    -5802569.3900 
  24338894.422     -416466.7450 
  20319896.509    -2430479.6560 
  23136092.202      991675.5800 
  22060495.265      317600.8980 
  21397478.130    -1207711.6010 
  20133010.446    -2377095.8880 
  21910316.287      345949.9240 
  23244613.831    -1154331.7360 
 25 10 20 17 59 10.0000000  0 10G06G11G12G13G14G15G17G19G22G30      
  23296984.598     -548662.6400 
  24499390.025    -5874166.7000 
  24336079.643     -474890.9200 
  20321969.321    -2463210.5500 
  23139914.885      968145.6370 
  22059455.971      268521.4770 
  21401807.358    -1228589.8100 
  20135183.136    -2409304.3650 
  21913397.468      318512.2190 
  23248861.211    -1175638.4400 
 25 10 20 17 59 20.0000000  0 10G06G11G12G13G14G15G17G19G22G30      
  23292440.812     -616162.4910 
  24494063.525    -5945778.1790 
  24333267.412     -533300.3940 
  20324054.697    -2495877.3590 
  23143738.399      944610.8990 
  22058426.237      219497.6330 
  21406145.002    -1249421.4850 
  20137367.389    -2441449.9510 
  21916477.762      291080.6770 
  23253113.428    -1196915.9970 
 25 10 20 17 59 30.0000000  0 10G06G11G12G13G14G15G17G19G22G30      
  23287899.856     -683644.9420 
  24488732.416    -6017402.3290 
  24330456.009     -591693.7830 
  20326151.203    -2528478.7170 
  23147562.024      921072.6360 
  22057408.204      170530.8670 
  21410490.054    -1270205.2740 
  20139562.628    -2473531.2710 
  21919559.599      263656.7280 
  23257369.907    -1218162.8760 
 25 10 20 17 59 40.0000000  0 10G06G11G12G13G14G15G17G19G22G30      
  23283362.245     -751111.0590 
  24483401.504    -6089040.2890 
  24327647.378     -650072.4040 
  20328260.928    -2561015.8950 
  23151384.416      897529.7810 
  22056400.957      121619.8500 
  21414845.177    -1290942.5140 
  20141771.086    -2505549.6140 
  21922642.778      236239.0540 
  23261633.451    -1239380.4270 
 25 10 20 17 59 50.0000000  0 10G06G11G12G13G14G15G17G19G22G30      
  23278827.264     -818561.3030 
  24478066.782    -6160692.5090 
  24324842.092     -708436.7760 
  20330382.440    -2593489.4250 
  23155204.286      873981.6650 
  22055405.927       72764.0960 
  21419209.226    -1311633.7290 
  20143991.189    -2537505.6710 
  21925727.299      208827.0440 
  23265902.630    -1260569.0890 
 25 10 20 18 00 00.0000000  0 10G06G11G12G13G14G15G17G19G22G30      
  23274294.339     -885995.1310 
  24472729.823    -6232358.4460 
  24322038.290     -766786.4820 
  20332515.881    -2625898.9190 
  23159022.349      850428.8680 
  22054422.970       23963.9770 
  21423581.340    -1332278.6880 
  20146222.791    -2569399.0150 
  21928813.732      181421.1550 
  23270178.872    -1281728.4750 
 25 10 20 18 00 10.0000000  0 10G06G11G12G13G14G15G17G19G22G30      
  23269766.330     -953412.1630 
  24467390.769    -6304037.7900 
  24319236.827     -825121.3360 
  20334662.395    -2658244.2990 
  23162842.036      826871.4560 
  22053451.796      -24780.2200 
  21427962.949    -1352877.2710 
  20148467.465    -2601229.5550 
  21931901.361      154021.5650 
  23274459.745    -1302858.4600 
 25 10 20 18 00 20.0000000  0  9G06G11G12G14G15G17G19G22G30         
  23265238.826    -1020812.6050 
  24462048.786    -6375730.6490 
  24316438.447     -883441.6380 
  23166659.224      803309.2510 
  22052487.424      -73468.7430 
  21432351.217    -1373429.7550 
  20150721.804    -2632997.4540 
  21934987.636      126628.0760 
  23278744.271    -1323959.1600 
 25 10 20 18 00 30.0000000  0 10G06G11G12G13G14G15G17G19G22G30      
  23260714.350    -1088196.3850 
  24456704.966    -6447437.1150 
  24313643.809     -941747.6340 
  20338987.077    -2722743.6340 
  23170473.859      779742.1490 
  22051530.660     -122101.8040 
  21436747.521    -1393936.3940 
  20152987.898    -2664702.9610 
  21938075.507       99240.5210 
  23283031.253    -1345030.7260 
 25 10 20 18 00 40.0000000  0 10G06G11G12G13G14G15G17G19G22G30      
  23256195.138    -1155563.2260 
  24451359.254    -6519156.8400 
  24310849.569    -1000038.9430 
  20341169.002    -2754897.6570 
  23174288.320      756170.3170 
  22050585.167     -170679.2110 
  21441155.098    -1414397.0460 
  20155266.553    -2696346.1690 
  21941164.778       71859.0970 
  23287328.363    -1366073.0730 
 25 10 20 18 00 50.0000000  0 10G06G11G12G13G14G15G17G19G22G30      
  23251680.034    -1222913.8180 
  24446008.923    -6590890.6450 
  24308060.011    -1058316.5420 
  20343363.622    -2786988.7580 
  23178101.739      732592.8540 
  22049653.372     -219201.8170 
  21445572.079    -1434812.6580 
  20157557.331    -2727927.8350 
  21944257.014       44482.8240 
  23291630.583    -1387087.0250 
 25 10 20 18 01 00.0000000  0 10G06G11G12G13G14G15G17G19G22G30      
  23247166.549    -1290246.6900 
  24440655.059    -6662636.9360 
  24305272.214    -1116578.9910 
  20345570.020    -2819015.3620 
  23181915.631      709011.2300 
  22048731.923     -267668.0300 
  21449997.116    -1455181.9310 
  20159860.458    -2759446.6110 
  21947350.008       17113.2390 
  23295938.572    -1408071.1330 
 25 10 20 18 01 10.0000000  0 10G06G11G12G13G14G15G17G19G22G30      
  23242656.930    -1357562.3640 
  24435298.193    -6734396.3720 
  24302486.424                  
  20347787.152    -2850978.4660 
  23185727.809      685424.7120 
  22047820.780     -316078.6000 
  21454429.312    -1475505.6950 
  20162173.892    -2790903.2360 
  21950443.007      -10250.4080 
  23300251.142    -1429026.1520 
 25 10 20 18 01 20.0000000  0 10G06G11G12G13G14G15G17G19G22G30      
  23238150.693    -1424861.2440 
  24429939.701    -6806169.3670 
  24299704.731                  
  20350015.823    -2882878.5680 
  23189537.359      661832.8110 
  22046921.318     -364434.1820 
  21458869.754    -1495784.4670 
  20164499.149    -2822298.2790 
  21953536.382      -37608.7320 
  23304567.953    -1449952.5400 
 25 10 20 18 01 30.0000000  0 10G06G11G12G13G14G15G17G19G22G30      
  23233639.687    -1492140.9810 
  24424569.571    -6877953.6120 
  24296920.415                  
  20352248.739    -2914713.3960 
  23193338.133      638237.7440 
  22046022.095     -412732.3380 
  21463310.722    -1516016.2340 
  20166827.794    -2853629.6340 
  21956622.841      -64959.3580 
  23308883.000    -1470848.1610 
 25 10 20 18 01 40.0000000  0 10G06G11G12G13G14G15G17G19G22G30      
  23229139.539    -1559402.4260 
  24419203.716    -6949749.8860 
  24294140.375                  
  20354501.241    -2946484.0460 
  23197145.616      614638.6430 
  22045143.174     -460974.2290 
  21467767.841    -1536202.0160 
  20169176.168    -2884898.2460 
  21959718.012      -92303.3660 
  23313209.763    -1491713.9030 
 25 10 20 18 01 50.0000000  0  9G06G11G13G14G15G17G19G22G30         
  23224640.376    -1626645.9810 
  24413835.556    -7021558.7790 
  20356763.745    -2978191.1600 
  23200950.936      591034.8540 
  22044271.964     -509160.2800 
  21472231.241    -1556342.3870 
  20171534.257    -2916104.7160 
  21962812.309     -119641.3580 
  23317540.231    -1512550.3870 
 25 10 20 18 02 00.0000000  0  9G06G11G13G14G15G17G19G22G30         
  23220147.387    -1693870.2460 
  24408466.559    -7093378.8030 
  20359041.007    -3009833.4370 
  23204756.277      567427.6550 
  22043411.364     -557289.1940 
  21476705.394    -1576436.1810 
  20173905.817    -2947247.8260 
  21965910.203     -146972.1080 
  23321879.448    -1533356.3010 
 25 10 20 18 02 10.0000000  0  9G06G11G13G14G15G17G19G22G30         
  23215655.975    -1761075.4470 
  24403096.276    -7165210.2500 
  20361330.434    -3041411.2990 
  23208561.620      543816.6980 
  22042560.496     -605361.5320 
  21481188.421    -1596483.7800 
  20176289.255    -2978328.0840 
  21969008.386     -174295.9600 
  23326224.534    -1554132.0680 
 25 10 20 18 02 20.0000000  0  9G06G11G13G14G15G17G19G22G30         
  23211168.916    -1828261.9740 
  24397723.334    -7237053.3440 
  20363630.797    -3072925.0840 
  23212366.023      520201.6690 
  22041719.562     -653377.4530 
  21485679.235    -1616485.5890 
  20178684.488    -3009345.8640 
  21972107.202     -201613.2000 
  23330575.261    -1574877.8950 
 25 10 20 18 02 30.0000000  0  9G06G11G13G14G15G17G19G22G30         
  23206681.340    -1895430.3610 
  24392346.156    -7308908.8390 
  20365943.665    -3104375.7420 
  23216165.043      496581.7870 
  22040892.707     -701337.8710 
  21490178.834    -1636442.6850 
  20181090.939    -3040302.0610 
  21975207.791     -228924.7480 
  23334931.195    -1595594.7430 
 25 10 20 18 02 40.0000000  0  9G06G11G13G14G15G17G19G22G30         
  23202195.632    -1962579.0430 
  24386965.408    -7380775.2180 
  20368266.986    -3135761.9230 
  23219963.356      472958.2870 
  22040076.734                  
  21494685.737    -1656353.7490 
  20183507.555    -3071195.2500 
  21978306.813     -256229.2370 
  23339289.426    -1616281.1410 
 25 10 20 18 02 50.0000000  0  8G06G11G13G14G17G19G22G30            
  23197715.722    -2112984.1030 
  24381583.304    -7452652.5050 
  20370600.685    -3167083.8050 
  23223761.886      449331.2320 
  21499199.727    -1676218.9320 
  20185934.979    -3102025.8230 
  21981407.341     -283526.7900 
  23343652.168    -1636937.3490 
 25 10 20 18 03 00.0000000  0  8G06G11G13G14G17G19G22G30            
  23193240.925    -2180095.0910 
  24376198.299    -7524542.3200 
  20372947.509    -3198343.0270 
  23227561.093      425698.7320 
  21503722.980    -1696040.0230 
  20188374.241    -3132795.4260 
  21984509.119     -310819.1100 
  23348022.742    -1657564.9960 
 25 10 20 18 03 10.0000000  0  8G06G11G13G14G17G19G22G30            
  23188768.978    -2247187.7120 
  24370811.422    -7596444.3490 
  20375307.343    -3229539.5490 
  23231359.573      402061.3110 
  21508254.519    -1715816.8960 
  20190825.796    -3163503.9350 
  21987612.744     -338106.0340 
  23352399.599    -1678163.8030 
 25 10 20 18 03 20.0000000  0  8G06G11G13G14G17G19G22G30            
  23184305.018    -2314261.5460 
  24365423.518    -7668358.1810 
  20377679.170    -3260673.0270 
  23235157.454      378418.9520 
  21512795.906    -1735549.3160 
  20193289.918    -3194151.0720 
  21990717.774     -365387.2080 
  23356782.869    -1698733.5530 
 25 10 20 18 03 30.0000000  0  8G06G11G13G14G17G19G22G30            
  23179842.174    -2381315.3360 
  24360033.009    -7740282.5590 
  20380062.846    -3291742.4260 
  23238954.020      354772.9790 
  21517346.566    -1755236.2840 
  20195767.175    -3224735.6640 
  21993824.493     -392661.5390 
  23361170.118    -1719273.1450 
 25 10 20 18 03 40.0000000  0  8G06G11G13G14G17G19G22G30            
  23175381.975    -2448350.0150 
  24354638.420    -7812218.4760 
  20382456.749    -3322748.9330 
  23242750.940      331122.2370 
  21521904.019    -1774879.0100 
  20198254.089    -3255258.9110 
  21996930.995     -419930.1760 
  23365561.585    -1739783.6420 
 25 10 20 18 03 50.0000000  0  8G06G11G13G14G17G19G22G30            
  23170923.974    -2515364.6020 
  24349242.165    -7884165.0210 
  20384863.297    -3353691.8340 
  23246545.765      307467.6210 
  21526470.254    -1794476.6300 
  20200753.646    -3285720.1870 
  22000038.693     -447192.2490 
  23369960.688    -1760264.2100 
 25 10 20 18 04 00.0000000  0  8G06G11G13G14G17G19G22G30            
  23166471.856    -2582359.3630 
  24343845.640    -7956122.4660 
  20387283.311    -3384571.3700 
  23250337.172      283808.6830 
  21531045.518    -1814029.6780 
  20203264.667    -3316119.9100 
  22003147.981     -474448.2200 
  23374364.671    -1780715.2570 
 25 10 20 18 04 10.0000000  0  8G06G11G13G14G17G19G22G30            
  23162019.758    -2649333.8470 
  24338443.984    -8028090.4810 
  20389713.363    -3415387.3050 
  23254128.028      260145.6880 
  21535627.386    -1833537.9620 
  20205785.296    -3346457.9550 
  22006255.573     -501697.8160 
  23378771.395    -1801136.5480 
 25 10 20 18 04 20.0000000  0  8G06G11G13G14G17G19G22G30            
  23157570.334    -2716289.0020 
  24333038.563    -8100069.7510 
  20392154.530    -3446140.6690 
  23257919.983      236477.8650 
  21540215.934    -1853002.3960 
  20208316.325    -3376735.1870 
  22009363.119     -528941.8760 
  23383182.795    -1821528.9920 
 25 10 20 18 04 30.0000000  0  8G06G11G13G14G17G19G22G30            
  23153126.742    -2783224.7340 
  24327631.390    -8172060.4530 
  20394606.967    -3476831.6670 
  23261710.186      212804.9230 
  21544813.033    -1872423.3590 
  20210859.053    -3406951.8040 
  22012471.919     -556180.7030 
  23387599.454    -1841892.6680 
 25 10 20 18 04 40.0000000  0  8G06G11G13G14G17G19G22G30            
  23148691.656    -2850141.5360 
  24322229.146    -8244063.0150 
  20397076.639    -3507460.9960 
  23265503.316      189126.2840 
  21549424.934    -1891801.5270 
  20213419.588    -3437108.5170 
  22015588.223     -583414.8200 
  23392029.629    -1862228.2850 
 25 10 20 18 04 50.0000000  0  9G06G11G13G14G15G17G19G22G30         
  23144264.307    -2917038.5880 
  24316828.342    -8316076.6860 
  20399563.062    -3538028.0000 
  23269300.747      165442.6160 
  22030363.953      -24006.6170 
  21554048.864    -1911136.2400 
  20215995.730    -3467204.7300 
  22018709.259     -610643.6180 
  23396469.543    -1882535.1570 
 25 10 20 18 05 00.0000000  0  9G06G11G13G14G15G17G19G22G30         
  23139835.793    -2983914.8830 
  24311419.077    -8388100.3780 
  20402056.048    -3568531.7270 
  23273089.573      141754.9680 
  22029689.313      -71128.4540 
  21558674.778    -1930426.5410 
  20218577.146    -3497239.4530 
  22021826.412     -637866.0450 
  23400907.577    -1902812.2110 
 25 10 20 18 05 10.0000000  0  9G06G11G13G14G15G17G19G22G30         
  23135407.374    -3050771.3350 
  24306005.327    -8460135.1260 
  20404555.996    -3598973.4110 
  23276873.199                  
  22029028.790     -118195.0420 
  21563304.936    -1949673.7440 
  20221166.957    -3527213.9130 
  22024940.081     -665083.2470 
  23405347.566    -1923060.6850 
 25 10 20 18 05 20.0000000  0  8G06G11G13G15G17G19G22G30            
  23130978.025    -3117607.5870 
  24300587.498    -8532180.4910 
  20407065.174    -3629352.7700 
  22028374.492     -165206.1100 
  21567940.889    -1968877.7170 
  20223764.852    -3557127.9520 
  22028053.393     -692295.0360 
  23409790.345    -1943280.2340 
 25 10 20 18 05 30.0000000  0  8G06G11G13G15G17G19G22G30            
  23126558.236    -3184422.5720 
  24295169.787    -8604235.4790 
  20409590.495    -3659668.8890 
  22027732.902     -212160.5970 
  21572588.550    -1988037.5180 
  20226378.317    -3586980.6000 
  22031169.541     -719500.4130 
  23414241.397    -1963469.9440 
 25 10 20 18 05 40.0000000  0  8G06G11G13G15G17G19G22G30            
  23122139.560    -3251216.7120 
  24289745.889    -8676300.6500 
  20412125.227    -3689922.5370 
  22027102.441     -259059.3820 
  21577243.618    -2007154.0010 
  20229001.194    -3616772.7100 
  22034285.799     -746700.1110 
  23418696.709    -1983630.5790 
 25 10 20 18 05 50.0000000  0  8G06G11G13G15G17G19G22G30            
  23117721.717    -3317990.6390 
  24284319.964    -8748376.4750 
  20414669.665    -3720114.3590 
  22026481.543     -305902.8890 
  21581904.385    -2026227.7340 
  20231633.347    -3646504.8480 
  22037401.746     -773894.7740 
  23423154.429    -2003762.6160 
 25 10 20 18 06 00.0000000  0  8G06G11G13G15G17G19G22G30            
  23113304.783    -3384743.4550 
  24278891.370    -8820462.1560 
  20417223.455    -3750243.6940 
  22025870.139     -352690.5440 
  21586571.356    -2045258.1630 
  20234274.995    -3676176.4350 
  22040515.883     -801083.6310 
  23427617.780    -2023865.4110 
 25 10 20 18 06 10.0000000  0  8G06G11G13G15G17G19G22G30            
  23108896.264    -3451475.8110 
  24273460.889    -8892558.3530 
  20419791.382    -3780311.2450 
  22025269.868     -399422.9600 
  21591248.029    -2064246.0920 
  20236929.207    -3705788.2090 
  22043632.282     -828267.4570 
  23432086.827    -2043939.6850 
 25 10 20 18 06 20.0000000  0  8G06G11G13G15G17G19G22G30            
  23104492.937    -3518188.3670 
  24268029.446    -8964665.8080 
  20422373.087    -3810318.0330 
  22024681.085     -446101.1980 
  21595933.472    -2083192.5140 
  20239596.338    -3735341.1710 
  22046750.438     -855447.1900 
  23436564.070    -2063986.3770 
 25 10 20 18 06 30.0000000  0  8G06G11G13G15G17G19G22G30            
  23100092.930    -3584879.2620 
  24262597.603    -9036782.6030 
  20424967.127    -3840262.2380 
  22024102.205     -492723.3960 
  21600627.815    -2102095.6760 
  20242275.804    -3764833.5600 
  22049870.627     -882621.0220 
  23441045.493    -2084003.6700 
 25 10 20 18 06 40.0000000  0  8G06G11G13G15G17G19G22G30            
  23095697.921    -3651548.7760 
  24257164.319    -9108909.0420 
  20427573.463    -3870144.4680 
  22023533.331     -539289.8050 
  21605330.447    -2120956.1630 
  20244967.565    -3794265.9110 
  22052993.382     -909789.3200 
  23445532.486    -2103991.8930 
 25 10 20 18 06 50.0000000  0  8G06G11G13G15G17G19G22G30            
  23091307.636    -3718195.7250 
  24251728.032    -9181044.0200 
  20430189.101    -3899963.7050 
  22022974.904     -585799.6060 
  21610040.951    -2139772.9760 
  20247669.774    -3823637.3090 
  22056115.279     -936951.1230 
  23450026.349    -2123950.2130 
 25 10 20 18 07 00.0000000  0  9G06G11G12G13G15G17G19G22G30         
  23086925.606    -3784821.7200 
  24246295.708    -9253189.0820 
  24206595.426                  
  20432822.296    -3929721.4780 
  22022430.743     -632254.3750 
  21614763.861    -2158547.8610 
  20250387.966    -3852949.3880 
  22059243.859     -964108.0820 
  23454532.331    -2143880.2380 
 25 10 20 18 07 10.0000000  0  9G06G11G12G13G15G17G19G22G30         
  23082534.651    -3851426.4180 
  24240849.306    -9325343.9190 
  24203889.951                  
  20435454.865    -3959417.8020 
  22021884.668     -678653.9390 
  21619481.994    -2177280.6680 
  20253104.815    -3882201.9890 
  22062360.936     -991259.9940 
  23459029.673    -2163781.6740 
 25 10 20 18 07 20.0000000  0  9G06G11G12G13G15G17G19G22G30         
  23078154.853    -3918010.2120 
  24235407.910    -9397508.9460 
  24201195.060                  
  20438105.888    -3989053.3420 
  22021354.615     -724998.9710 
  21624216.436    -2195971.8480 
  20255839.262    -3911395.8000 
  22065485.881    -1018407.4790 
  23463539.175    -2183655.0930 
 25 10 20 18 07 30.0000000  0  8G06G11G13G15G17G19G22G30            
  23073779.927    -3984571.5930 
  24229964.803    -9469682.7350 
  20440770.942    -4018626.7540 
  22020836.160     -771287.8960 
  21628960.902    -2214620.4200 
  20258587.738    -3940529.5020 
  22068614.123    -1045549.1230 
  23468054.121    -2203499.2310 
 25 10 20 18 07 40.0000000  0  8G06G11G13G15G17G19G22G30            
  23069408.302    -4051111.1410 
  24224519.702    -9541865.8650 
  20443447.166    -4048138.8040 
  22020329.590     -817521.4920 
  21633712.245    -2233227.1840 
  20261347.385    -3969603.8560 
  22071742.804    -1072685.6180 
  23472573.798    -2223314.7130 
 25 10 20 18 07 50.0000000  0  8G06G11G13G15G17G19G22G30            
  23065040.728    -4117629.7030 
  24219072.213    -9614059.1530 
  20446133.309    -4077590.4820 
  22019832.939     -863700.7500 
  21638470.358    -2251793.1260 
  20264116.664    -3998619.9390 
  22074869.955    -1099817.9560 
  23477097.384    -2243102.6320 
 25 10 20 18 08 00.0000000  0  8G06G11G13G15G17G19G22G30            
  23060676.150    -4184125.7390 
  24213621.425    -9686261.0890 
  20448828.886    -4106980.3170 
  22019345.151     -909824.1240 
  21643235.045    -2270316.8760 
  20266894.805    -4027576.3200 
  22077996.812    -1126944.6920 
  23481625.826    -2262861.3700 
 25 10 20 18 08 10.0000000  0  8G06G11G13G15G17G19G22G30            
  23056318.364    -4250599.9960 
  24208171.847    -9758472.5000 
  20451539.269    -4136309.3420 
  22018867.588     -955892.6730 
  21648010.387    -2288799.3780 
  20269688.038    -4056473.9640 
  22081127.027    -1154066.7910 
  23486164.065    -2282591.9600 
 25 10 20 18 08 20.0000000  0  8G06G11G13G15G17G19G22G30            
  23051964.693    -4317051.8430 
  24202721.090    -9830692.7370 
  20454261.207    -4165577.1020 
  22018401.009    -1001905.9640 
  21652791.705    -2307240.2210 
  20272491.825    -4085312.4520 
  22084257.492    -1181183.7270 
  23490706.848    -2302293.9360 
 25 10 20 18 08 30.0000000  0  8G06G11G13G15G17G19G22G30            
  23047614.351    -4383480.5090 
  24197265.793    -9902920.9960 
  20456993.486    -4194782.8930 
  22017945.200    -1047863.1480 
  21657579.070    -2325638.8380 
  20275305.380    -4114091.1390 
  22087389.284    -1208294.8180 
  23495253.962    -2321966.5360 
 25 10 20 18 08 40.0000000  0  8G06G11G13G15G17G19G22G30            
  23043266.530    -4449886.6930 
  24191809.009    -9975158.0920 
  20459738.445    -4223927.8100 
  22017499.495    -1093765.3350 
  21662377.254    -2343996.3080 
  20278131.043    -4142811.1390 
  22090522.451    -1235401.0710 
  23499807.603    -2341610.7510 
 25 10 20 18 08 50.0000000  0  8G06G11G13G15G17G19G22G30            
  23038922.276    -4516269.9210 
  24186348.781   -10047403.4590 
  20462492.123    -4253011.3480 
  22017064.513    -1139611.9110 
  21667179.008    -2362312.1410 
  20280964.996    -4171471.9610 
  22093653.177    -1262501.9720 
  23504363.238    -2361226.0690 
 25 10 20 18 09 00.0000000  0  8G06G11G13G15G17G19G22G30            
  23034580.066    -4582629.4740 
  24180885.733   -10119656.5000 
  20465254.714    -4282033.1140 
  22016636.297    -1185402.3760 
  21671986.954    -2380585.9510 
  20283807.574    -4200073.1490 
  22096782.511    -1289597.0670 
  23508922.919    -2380812.0240 
 25 10 20 18 09 10.0000000  0  9G06G11G12G13G15G17G19G22G30         
  23030248.876    -4648965.3640 
  24175427.551   -10191917.2100 
  24171721.327    -1089580.1000 
  20468035.192    -4310993.2580 
  22016224.537    -1231136.8700 
  21676809.211    -2398817.9470 
  20286667.183    -4228614.9040 
  22099918.430    -1316686.3950 
  23513493.048    -2400368.7520 
 25 10 20 18 09 20.0000000  0  9G06G11G12G13G15G17G19G22G30         
  23025917.287    -4715279.0620 
  24169962.673   -10264187.1040 
  24169055.613    -1147147.3370 
  20470824.715    -4339893.4460 
  22015821.107    -1276816.9960 
  21681635.218    -2417009.8030 
  20289535.835    -4257098.9470 
  22103052.662    -1343771.6460 
  23518066.641    -2419897.8730 
 25 10 20 18 09 30.0000000  0  8G06G11G13G15G17G19G22G30            
  23021588.023    -4781569.4250 
  24164493.682   -10336464.9640 
  20473621.429    -4368732.5960 
  22015424.153    -1322441.7500 
  21686465.984    -2435160.5100 
  20292412.109    -4285524.3840 
  22106184.783    -1370851.6830 
  23522642.847    -2439398.2110 
 25 10 20 18 09 40.0000000  0  9G06G11G12G13G15G17G19G22G30         
  23017268.057    -4847837.0920 
  24159026.834   -10408751.4480 
  24163727.404                  
  20476434.452    -4397511.6520 
  22015042.363    -1368011.8920 
  21691309.338    -2453271.0670 
  20295303.117    -4313891.8220 
  22109321.480    -1397927.3470 
  23527227.777    -2458870.6670 
 25 10 20 18 09 50.0000000  0  9G06G11G12G13G15G17G19G22G30         
  23012951.947    -4914081.9640 
  24153559.264   -10481046.5880 
  24161067.297                  
  20479258.630    -4426230.7010 
  22014669.723    -1413527.5190 
  21696160.413    -2471341.6250 
  20298205.422    -4342201.4880 
  22112459.601    -1424998.7610 
  23531816.135    -2478315.3350 
 25 10 20 18 10 00.0000000  0  9G06G11G12G13G15G17G19G22G30         
  23008640.070    -4980303.8550 
  24148090.202   -10553350.1760 
  24158409.562                  
  20482094.909    -4454889.7480 
  22014308.041    -1458988.5060 
  21701019.153    -2489372.1830 
  20301118.828    -4370453.4140 
  22115599.092    -1452065.8130 
  23536407.865    -2497732.0740 
 25 10 20 18 10 10.0000000  0  9G06G11G12G13G15G17G19G22G30         
  23004331.996    -5046503.4270 
  24142618.362   -10625662.9260 
  24155754.057    -1216472.6600 
  20484941.002    -4483489.6080 
  22013956.316    -1504395.7230 
  21705884.559    -2507363.5400 
  20304041.475    -4398648.4500 
  22118737.665    -1479129.3350 
  23541005.833    -2517121.8560 
 25 10 20 18 10 20.0000000  0  9G06G11G12G13G15G17G19G22G30         
  23000026.325    -5112680.0750 
  24137142.771   -10697984.2250 
  24153101.813    -1273966.9830 
  20487796.796    -4512029.9710 
  22013613.862    -1549748.6800 
  21710755.373    -2525315.3740 
  20306973.680    -4426786.2990 
  22121875.350    -1506188.8630 
  23545607.348    -2536484.0460 
 25 10 20 18 10 30.0000000  0  9G06G11G12G13G15G17G19G22G30         
  22995719.860    -5178831.9320 
  24131661.665   -10770312.1620 
  24150447.488                  
  20490660.381    -4540508.9730 
  22013276.624    -1595045.6110 
  21715628.828    -2543225.9430 
  20309912.961    -4454865.0930 
  22125010.524    -1533242.5560 
  23550210.931    -2555816.9410 
 25 10 20 18 10 40.0000000  0  8G06G11G13G15G17G19G22G30            
  22991423.232    -5244961.1430 
  24126184.099   -10842648.9200 
  20493540.385    -4568928.9820 
  22012955.233    -1640288.8520 
  21720515.982    -2561097.6090 
  20312868.231    -4482887.3090 
  22128149.953    -1560292.7450 
  23554822.920    -2575122.8060 
 25 10 20 18 10 50.0000000  0  9G06G11G13G14G15G17G19G22G30         
  22987129.855    -5311067.1580 
  24120702.916   -10914994.0040 
  20496430.938    -4597289.6980 
  23404886.006                  
  22012643.245    -1685477.9540 
  21725409.536    -2578930.1620 
  20315833.478    -4510852.5870 
  22131289.915    -1587339.0870 
  23559441.451    -2594401.3100 
 25 10 20 18 11 00.0000000  0  9G06G11G13G14G15G17G19G22G30         
  22982845.110    -5377149.6690 
  24115223.640   -10987347.0520 
  20499336.705    -4625590.8500 
  23408632.438     1031610.0620 
  22012346.329    -1730612.6090 
  21730314.870    -2596723.4020 
  20318814.226    -4538760.6760 
  22134434.503    -1614381.2190 
  23564068.757    -2613652.1360 
 25 10 20 18 11 10.0000000  0  9G06G11G13G14G15G17G19G22G30         
  22978560.656    -5443208.4060 
  24109740.933   -11059707.8760 
  20502248.629    -4653832.5860 
  23412377.730     1007739.0710 
  22012055.713    -1775692.8620 
  21735222.640    -2614477.4170 
  20321802.275    -4566611.6700 
  22137575.518    -1641419.1160 
  23568698.071    -2632875.2360 
 25 10 20 18 11 20.0000000  0  9G06G11G13G14G15G17G19G22G30         
  22974282.523    -5509243.7260 
  24104255.963   -11132076.8760 
  20505173.172    -4682015.3810 
  23416122.761      983862.1720 
  22011774.996    -1820719.2350 
  21740138.020    -2632192.6670 
  20324800.224    -4594406.1130 
  22140716.987    -1668453.3310 
  23573332.132    -2652071.1340 
 25 10 20 18 11 30.0000000  0  9G06G11G13G14G15G17G19G22G30         
  22970010.388    -5575254.7110 
  24098770.838   -11204453.1180 
  20508110.723    -4710138.4870 
  23419864.776                  
  22011505.572    -1865690.8850 
  21745062.403    -2649868.4490 
  20327810.609    -4622143.2040 
  22143862.881    -1695482.9860 
  23577973.479    -2671238.9900 
 25 10 20 18 11 40.0000000  0  9G06G11G13G14G15G17G19G22G30         
  22965740.958    -5641241.4280 
  24093284.697   -11276836.6210 
  20511058.420    -4738202.1250 
  23423612.929                  
  22011246.006    -1910608.0080 
  21749993.641    -2667504.9810 
  20330830.854    -4649823.1980 
  22147006.184    -1722508.3140 
  23582617.388    -2690379.0360 
 25 10 20 18 11 50.0000000  0  9G06G11G13G14G15G17G19G22G30         
  22961477.185    -5707204.3450 
  24087797.346   -11349227.9610 
  20514018.357    -4766206.9550 
  23427359.442                  
  22010995.104    -1955471.2850 
  21754934.112    -2685103.0160 
  20333863.052    -4677446.9030 
  22150153.285    -1749529.9810 
  23587270.817    -2709491.8540 
 25 10 20 18 12 00.0000000  0  8G06G11G13G15G17G19G22G30            
  22957217.035    -5773143.7330 
  24082306.891   -11421627.3790 
  20516986.638    -4794153.3880 
  22010753.976    -2000281.0550 
  21759881.069    -2702663.0300 
  20336904.024    -4705014.8350 
  22153299.430    -1776548.3600 
  23591927.440    -2728577.9370 
 25 10 20 18 12 10.0000000  0  8G06G11G13G15G17G19G22G30            
  22952958.445    -5839058.3820 
  24076813.418   -11494033.6910 
  20519963.921    -4822040.3130 
  22010522.708    -2045036.1930 
  21764832.018    -2720183.9870 
  20339953.854    -4732525.7440 
  22156444.130    -1803562.3490 
  23596587.770    -2747636.0900 
 25 10 20 18 12 20.0000000  0  8G06G11G13G15G17G19G22G30            
  22948703.430    -5904949.0340 
  24071321.087   -11566447.6800 
  20522953.650    -4849868.9600 
  22010302.457    -2089737.6240 
  21769788.975    -2737666.9620 
  20343014.700    -4759980.7000 
  22159589.543    -1830572.8710 
  23601250.959    -2766667.2750 
 25 10 20 18 12 30.0000000  0  8G06G11G13G15G17G19G22G30            
  22944454.921    -5970816.4520 
  24065825.961   -11638870.1060 
  20525955.752    -4877640.1330 
  22010092.145    -2134386.1870 
  21774755.729    -2755112.8060 
  20346087.346    -4787380.6410 
  22162736.454    -1857580.8010 
  23605921.513    -2785672.3840 
 25 10 20 18 12 40.0000000  0  8G06G11G13G15G17G19G22G30            
  22940214.109    -6036658.9010 
  24060329.947   -11711299.2300 
  20528971.274    -4905352.2700 
  22009895.397    -2178980.4310 
  21779731.325    -2772520.0760 
  20349172.840    -4814724.0210 
  22165886.340    -1884584.4700 
  23610598.905    -2804649.8130 
 25 10 20 18 12 50.0000000  0  8G06G11G13G15G17G19G22G30            
  22935977.801    -6102476.8490 
  24054832.284   -11783735.4260 
  20531996.309    -4933005.9400 
  22009707.445    -2223520.7760 
  21784711.568    -2789889.3090 
  20352267.561    -4842011.4340 
  22169035.865    -1911584.3880 
  23615280.372    -2823600.0430 
 25 10 20 18 13 00.0000000  0  8G06G11G13G15G17G19G22G30            
  22931745.528    -6168268.9660 
  24049332.216   -11856177.5670 
  20535032.247    -4960600.0700 
  22009530.540    -2268006.2460 
  21789700.996    -2807219.6040 
  20355373.041    -4869241.8270 
  22172185.560    -1938579.6170 
  23619966.446    -2842522.0270 
 25 10 20 18 13 10.0000000  0  8G06G11G13G15G17G19G22G30            
  22927518.148    -6234036.1470 
  24043832.892   -11928626.4840 
  20538079.946    -4988135.7510 
  22009362.535    -2312437.7350 
  21794698.609    -2824512.0020 
  20358489.281    -4896416.3110 
  22175336.286    -1965571.0690 
  23624657.842    -2861416.7600 
 25 10 20 18 13 20.0000000  0  8G06G11G13G15G17G19G22G30            
  22923296.770    -6299777.8450 
  24038333.703   -12001081.6420 
  20541139.229    -5015612.7110 
  22009204.252    -2356814.8570 
  21799702.940    -2841766.1010 
  20361616.390    -4923534.7040 
  22178487.863    -1992558.3400 
  23629354.954    -2880283.9160 
 25 10 20 18 13 30.0000000  0  8G06G11G13G15G17G19G22G30            
  22919077.394    -6365493.3040 
  24032832.796   -12073542.3850 
  20544208.240    -5043030.3450 
  22009055.555    -2401137.0210 
  21804713.995    -2858981.4470 
  20364753.512    -4950596.2740 
  22181638.865    -2019540.7520 
  23634056.358    -2899122.7370 
 25 10 20 18 13 40.0000000  0  8G06G11G13G15G17G19G22G30            
  22914863.046    -6431183.1040 
  24027328.045   -12146009.3120 
