     2.11           OBSERVATION DATA    GPS                 RINEX VERSION / TYPE
SpecSurv v4.22                          16-Jun-25 11:47     PGM / RUN BY / DATE
00062970                                                    MARKER NAME         
                                                            MARKER NUMBER       
                                                            OBSERVER / AGENCY   
07430006                                169-614678-005      REC # / TYPE / VERS 
                    <None>                                  ANT # / TYPE        
  3983111.1141 -4353255.8644 -2415209.4077                  APPROX POSITION XYZ 
        1.6210        0.0000        0.0000                  ANTENNA: DELTA H/E/N
     1     1                                                WAVELENGTH FACT L1/2
     1     0     7   G 6   G11   G12   G13   G14   G15   G17WAVELENGTH FACT L1/2
     1     0     4   G19   G22   G24   G30                  WAVELENGTH FACT L1/2
     3    L1    C1    D1                                    # / TYPES OF OBSERV 
    10.000                                                  INTERVAL            
  2005    10    24    17    43    0.0000000     GPS         TIME OF FIRST OBS   
  2005    10    24    19     8   20.0000000     GPS         TIME OF LAST OBS    
    11                                                      # OF SATELLITES     
   G 6         439                                          PRN / # OF OBS      
   G11         513                                          PRN / # OF OBS      
   G12         301                                          PRN / # OF OBS      
   G13         512                                          PRN / # OF OBS      
   G14          68                                          PRN / # OF OBS      
   G15         419                                          PRN / # OF OBS      
   G17         502                                          PRN / # OF OBS      
   G19         513                                          PRN / # OF OBS      
   G22         370                                          PRN / # OF OBS      
   G24         304                                          PRN / # OF OBS      
   G30         394                                          PRN / # OF OBS      
                                                            END OF HEADER       
 05 10 24 17 43  0.0000000  0  5G30G19G17G11G13
   1029122.5010   22862331.438           0.000
   1017456.8370   19981192.475           0.000
   1027793.1450   21025099.272           0.000
    992154.0520   24999928.143           0.000
   1017012.6990   20178152.066           0.000
 05 10 24 17 43 10.0000000  0  5G30G19G17G11G13
   1004908.7690   22866049.484           0.000
    978876.6810   19982177.036           0.000
   1001962.3290   21028510.386           0.000
    922252.7640   24994953.785           0.000
    977883.6750   20179032.170           0.000
 05 10 24 17 43 20.0000000  0  5G30G19G17G11G13
    980730.3150   22869772.651           0.000
    940370.0510   19983174.301           0.000
    976191.9990   21031931.342           0.000
    852334.7650   24989974.243           0.000
    938827.4540   20179924.978           0.000
 05 10 24 17 43 30.0000000  0  5G30G19G17G11G13
    956587.0310   22873503.443           0.000
    901936.7260   19984186.347           0.000
    950481.8560   21035364.360           0.000
    782399.9440   24984992.168           0.000
    899843.7990   20180832.281           0.000
 05 10 24 17 43 40.0000000  0  5G30G19G17G11G13
    932478.5750   22877240.855           0.000
    863576.3580   19985211.023           0.000
    924831.5260   21038808.005           0.000
    712448.1450   24980005.409           0.000
    860932.5210   20181751.927           0.000
 05 10 24 17 43 50.0000000  0  5G30G19G17G11G13
    908404.1430   22880983.229           0.000
    825288.0930   19986248.244           0.000
    899240.1580   21042261.333           0.000
    642478.6300   24975014.454           0.000
    822092.7240   20182684.262           0.000
 05 10 24 17 44  0.0000000  0  5G30G19G17G11G13
    884361.7720   22884730.621           0.000
    787070.0010   19987298.640           0.000
    873705.7030   21045725.976           0.000
    572489.4520   24970018.787           0.000
    783322.3500   20183630.201           0.000
 05 10 24 17 44 10.0000000  0  5G30G19G17G11G13
    860354.7910   22888485.709           0.000
    748925.2980   19988363.313           0.000
    848231.4620   21049201.606           0.000
    502484.0570   24965018.939           0.000
    744624.8170   20184589.129           0.000
 05 10 24 17 44 20.0000000  0  5G30G19G17G11G13
    836383.2710   22892246.219           0.000
    710853.9690   19989440.850           0.000
    822817.3630   21052687.665           0.000
    432462.5370   24960015.355           0.000
    706000.1330   20185561.922           0.000
 05 10 24 17 44 30.0000000  0  5G30G19G17G11G13
    812443.9710   22896014.559           0.000
    672852.8100   19990532.655           0.000
    797460.1600   21056185.132           0.000
    362421.7240   24955009.584           0.000
    667445.0660   20186548.126           0.000
 05 10 24 17 44 40.0000000  0  5G30G19G17G11G13
    788535.9270   22899788.027           0.000
    634920.8300   19991636.744           0.000
    772158.6660   21059692.306           0.000
    292360.7710   24949999.498           0.000
    628958.5970   20187546.756           0.000
 05 10 24 17 44 50.0000000  0  5G30G19G17G11G13
    764659.6270   22903566.670           0.000
    597058.4420   19992752.731           0.000
    746913.3350   21063209.090           0.000
    222280.2170   24944984.855           0.000
    590541.2040   20188558.000           0.000
 05 10 24 17 45  0.0000000  0  5G30G19G17G11G13
    740815.0710   22907347.581           0.000
    559265.6070   19993879.716           0.000
    721724.1420   21066735.011           0.000
    152180.2630   24939962.322           0.000
    552192.8600   20189579.240           0.000
 05 10 24 17 45 10.0000000  0  5G30G19G17G11G13
    717002.0310   22911134.679           0.000
    521542.0530   19995020.616           0.000
    696590.7270   21070271.413           0.000
     82060.5610   24934937.248           0.000
    513913.2660   20190613.680           0.000
 05 10 24 17 45 20.0000000  0  5G30G19G17G11G13
    693219.7520   22914930.196           0.000
    483887.0100   19996175.085           0.000
    671512.4770   21073818.379           0.000
     11920.6050   24929911.147           0.000
    475701.7450   20191662.261           0.000
 05 10 24 17 45 30.0000000  0  5G30G19G17G11G13
    669469.5440   22918729.259           0.000
    446301.7060   19997340.970           0.000
    646490.2250   21077374.471           0.000
    -58238.2850   24924879.149           0.000
    437559.4870   20192721.829           0.000
 05 10 24 17 45 40.0000000  0  5G30G19G17G11G13
    645751.1240   22922531.448           0.000
    408785.8820   19998517.566           0.000
    621523.7780   21080939.272           0.000
   -128416.2520   24919840.976           0.000
    399486.2830   20193792.250           0.000
 05 10 24 17 45 50.0000000  0  5G30G19G17G11G13
    622063.7390   22926336.797           0.000
    371338.7420   19999704.905           0.000
    596612.3380   21084512.811           0.000
   -198614.0040   24914797.234           0.000
    361481.2840   20194873.415           0.000
 05 10 24 17 46  0.0000000  0  5G30G19G17G11G13
    598407.6040   22930149.533           0.000
    333960.4270   20000906.214           0.000
    571755.9680   21088097.745           0.000
   -268831.2850   24909750.148           0.000
    323544.8610   20195968.836           0.000
 05 10 24 17 46 10.0000000  0  5G30G19G17G11G13
    574782.6290   22933966.072           0.000
    296650.8150   20002119.338           0.000
    546954.5770   21091691.490           0.000
   -339068.0250   24904697.993           0.000
    285676.7330   20197075.929           0.000
 05 10 24 17 46 20.0000000  0  5G30G19G17G11G13
    551188.3990   22937792.224           0.000
    259409.3370   20003348.086           0.000
    522207.6290   21095298.426           0.000
   -409324.6300   24899643.288           0.000
    247876.4380   20198198.789           0.000
 05 10 24 17 46 30.0000000  0  5G30G19G17G11G13
    527626.1710   22941622.985           0.000
    222237.2100   20004588.454           0.000
    497516.3480   21098914.549           0.000
   -479599.8030   24894584.607           0.000
    210145.3050   20199333.126           0.000
 05 10 24 17 46 40.0000000  0  5G30G19G17G11G13
    504096.4450   22945456.629           0.000
    185135.0720   20005840.147           0.000
    472881.0990   21102538.706           0.000
   -549892.8480   24889520.795           0.000
    172483.8250   20200477.643           0.000
 05 10 24 17 46 50.0000000  0  5G30G19G17G11G13
    480598.7390   22949297.831           0.000
    148102.3560   20007106.409           0.000
    448301.2780   21106173.855           0.000
   -620204.2570   24884454.238           0.000
    134891.4600   20201636.729           0.000
 05 10 24 17 47  0.0000000  0  5G30G19G17G11G13
    457133.0360   22953148.003           0.000
    111139.0160   20008388.082           0.000
    423777.0810   21109822.125           0.000
   -690533.8740   24879386.779           0.000
     97368.2020   20202812.085           0.000
 05 10 24 17 47 10.0000000  0  5G30G19G17G11G13
    433698.2920   22957003.201           0.000
     74243.9490   20009681.649           0.000
    399307.1730   21113480.285           0.000
   -760882.6660   24874312.469           0.000
     59912.9550   20203999.620           0.000
 05 10 24 17 47 20.0000000  0  5G30G19G17G11G13
    410294.2300   22960862.190           0.000
     37416.7310   20010985.588           0.000
    374891.0960   21117146.386           0.000
   -831250.8900   24869233.649           0.000
     22525.4260   20205197.528           0.000
 05 10 24 17 47 30.0000000  0  5G30G19G17G11G13
    386921.3290   22964729.410           0.000
       657.7890   20012305.199           0.000
    350529.2170   21120824.868           0.000
   -901637.9880   24864152.902           0.000
    -14794.0360   20206410.536           0.000
 05 10 24 17 47 40.0000000  0  5G30G19G17G11G13
    363579.7300   22968601.437           0.000
    -36032.7070   20013636.057           0.000
    326221.7140   21124511.305           0.000
   -972043.7020   24859068.663           0.000
    -52045.1410   20207634.218           0.000
 05 10 24 17 47 50.0000000  0  5G30G19G17G11G13
    340269.1010   22972482.010           0.000
    -72655.2390   20014983.616           0.000
    301968.0900   21128212.583           0.000
  -1042468.2860   24853979.805           0.000
    -89228.3220   20208874.601           0.000
 05 10 24 17 48  0.0000000  0  5G30G19G17G11G13
    316988.7910   22976361.458           0.000
   -109210.2700   20016339.353           0.000
    277767.8500   21131919.034           0.000
  -1112912.2500   24848884.671           0.000
   -126344.1330   20210123.019           0.000
 05 10 24 17 48 10.0000000  0  5G30G19G17G11G13
    293739.1320   22980240.977           0.000
   -145697.7270   20017702.314           0.000
    253620.9640   21135630.706           0.000
  -1183375.2650   24843782.596           0.000
   -163392.4630   20211378.518           0.000
 05 10 24 17 48 20.0000000  0  5G30G19G17G11G13
    270520.2360   22984133.669           0.000
   -182117.4340   20019081.596           0.000
    229527.6100   21139355.980           0.000
  -1253857.1120   24838680.530           0.000
   -200373.1570   20212651.197           0.000
 05 10 24 17 48 30.0000000  0  5G30G19G17G11G13
    247332.9180   22988031.800           0.000
   -218468.4800   20020474.760           0.000
    205488.6250   21143091.988           0.000
  -1324356.8320   24833575.460           0.000
   -237285.3640   20213937.900           0.000
 05 10 24 17 48 40.0000000  0  5G30G19G17G11G13
    224176.4520   22991928.249           0.000
   -254751.8380   20021873.683           0.000
    181503.0550   21146832.180           0.000
  -1394875.1360   24828461.411           0.000
   -274129.8910   20215230.362           0.000
 05 10 24 17 48 50.0000000  0  5G30G19G17G11G13
    201050.5840   22995835.159           0.000
   -290967.7660   20023289.362           0.000
    157570.8050   21150585.267           0.000
  -1465412.1290   24823347.949           0.000
   -310907.0190   20216539.725           0.000
 05 10 24 17 49  0.0000000  0  5G30G19G17G11G13
    177955.2420   22999745.273           0.000
   -327116.3150   20024716.832           0.000
    133691.4060   21154346.852           0.000
  -1535967.9090   24818229.392           0.000
   -347616.7860   20217860.162           0.000
 05 10 24 17 49 10.0000000  0  5G30G19G17G11G13
    154890.1630   23003658.764           0.000
   -363197.7690   20026154.975           0.000
    109864.6600   21158116.821           0.000
  -1606542.4740   24813103.910           0.000
   -384259.4830   20219190.843           0.000
 05 10 24 17 49 20.0000000  0  5G30G19G17G11G13
    131854.8700   23007585.543           0.000
   -399212.8480   20027610.843           0.000
     86089.8800   21161901.081           0.000
  -1677136.4120   24807981.126           0.000
   -420835.7410   20220539.249           0.000
 05 10 24 17 49 30.0000000  0  5G30G19G17G11G13
    108848.5710   23011513.877           0.000
   -435162.3600   20029076.422           0.000
     62366.1510   21165693.334           0.000
  -1747750.3940   24802851.169           0.000
   -457346.2880   20221898.940           0.000
 05 10 24 17 49 40.0000000  0  5G30G19G17G11G13
     85871.9760   23015441.581           0.000
   -471045.5920   20030551.387           0.000
     38694.2280   21169492.112           0.000
  -1818383.5030   24797713.714           0.000
   -493790.3710   20223267.731           0.000
 05 10 24 17 49 50.0000000  0  5G30G19G17G11G13
     62924.6980   23019389.927           0.000
   -506862.9270   20032049.713           0.000
     15073.6730   21173310.102           0.000
  -1889036.0390   24792581.589           0.000
   -530168.4490   20224659.453           0.000
 05 10 24 17 50  0.0000000  0  5G30G19G17G11G13
     40006.0010   23023340.533           0.000
   -542615.1860   20033555.451           0.000
     -8496.3680   21177134.357           0.000
  -1959708.7930   24787442.567           0.000
   -566481.4060   20226058.158           0.000
 05 10 24 17 50 10.0000000  0  5G30G19G17G11G13
     17115.4910   23027292.491           0.000
   -578302.7830   20035070.982           0.000
    -32016.3040   21180966.547           0.000
  -2030401.8920   24782297.456           0.000
   -602729.5080   20227467.229           0.000
 05 10 24 17 50 20.0000000  0  5G30G19G17G11G13
     -5746.2330   23031249.017           0.000
   -613925.1510   20036597.808           0.000
    -55485.7480   21184807.312           0.000
  -2101114.7580   24777147.899           0.000
   -638912.2040   20228888.167           0.000
 05 10 24 17 50 30.0000000  0  5G30G19G17G11G13
    -28577.8500   23035211.533           0.000
   -649481.0930   20038139.065           0.000
    -78903.3940   21188658.073           0.000
  -2171845.9950   24771996.031           0.000
   -675028.2540   20230323.536           0.000
 05 10 24 17 50 40.0000000  0  5G30G19G17G11G13
    -51379.4700   23039177.386           0.000
   -684970.8010   20039691.674           0.000
   -102269.3820   21192518.039           0.000
  -2242595.6590   24766839.203           0.000
   -711077.8030   20231769.827           0.000
 05 10 24 17 50 50.0000000  0  5G30G19G17G11G13
    -74151.1890   23043146.441           0.000
   -720394.2580   20041253.778           0.000
   -125583.8170   21196385.784           0.000
  -2313363.5900   24761675.415           0.000
   -747060.8680   20233224.899           0.000
 05 10 24 17 51  0.0000000  0  5G30G19G17G11G13
    -96894.4710   23047129.792           0.000
   -755753.0410   20042836.333           0.000
   -148848.4970   21200269.113           0.000
  -2384151.2620   24756513.904           0.000
   -782979.0660   20234699.277           0.000
 05 10 24 17 51 10.0000000  0  5G30G19G17G11G13
   -119608.6100   23051120.545           0.000
   -791046.4650   20044432.300           0.000
   -172062.7520   21204163.280           0.000
  -2454957.9820   24751350.495           0.000
   -818831.6120   20236188.926           0.000
 05 10 24 17 51 20.0000000  0  5G30G19G17G11G13
   -142293.7910   23055108.609           0.000
   -826274.6900   20046033.734           0.000
   -195226.7850   21208060.481           0.000
  -2525783.7070   24746179.388           0.000
   -854618.8070   20237683.900           0.000
 05 10 24 17 51 30.0000000  0  5G30G19G17G11G13
   -164951.0460   23059107.645           0.000
   -861439.0220   20047651.577           0.000
   -218341.7710   21211971.372           0.000
  -2596629.4560   24741006.661           0.000
   -890341.6240   20239194.567           0.000
 05 10 24 17 51 40.0000000  0  5G30G19G17G11G13
   -187579.0490   23063109.200           0.000
   -896538.0800   20049278.951           0.000
   -241406.3180   21215888.932           0.000
  -2667493.7280   24735829.728           0.000
   -925998.7950   20240716.482           0.000
 05 10 24 17 51 50.0000000  0  5G30G19G17G11G13
   -210178.0080   23067118.786           0.000
   -931572.0590   20050921.796           0.000
   -264420.8660   21219818.386           0.000
  -2738376.7180   24730651.238           0.000
   -961590.6230   20242254.155           0.000
 05 10 24 17 52  0.0000000  0  5G30G19G17G11G13
   -232748.9230   23071134.055           0.000
   -966542.0730   20052577.766           0.000
   -287386.4390   21223758.246           0.000
  -2809279.2960   24725467.986           0.000
   -997118.1030   20243803.664           0.000
 05 10 24 17 52 10.0000000  0  5G30G19G17G11G13
   -255291.1220   23075154.988           0.000
  -1001447.4570   20054245.410           0.000
   -310302.4370   21227707.061           0.000
  -2880200.6480   24720281.098           0.000
  -1032580.5480   20245365.706           0.000
 05 10 24 17 52 20.0000000  0  5G30G19G17G11G13
   -277804.4800   23079180.864           0.000
  -1036288.1360   20055925.436           0.000
   -333168.7870   21231665.826           0.000
  -2951140.6080   24715090.136           0.000
  -1067978.0040   20246939.988           0.000
 05 10 24 17 52 30.0000000  0  5G30G19G17G11G13
   -300289.3740   23083210.524           0.000
  -1071064.5450   20057615.973           0.000
   -355985.9290   21235631.811           0.000
  -3022099.5300   24709895.805           0.000
  -1103310.7410   20248524.637           0.000
 05 10 24 17 52 40.0000000  0  5G30G19G17G11G13
   -322746.2870   23087246.776           0.000
  -1105777.2570   20059319.254           0.000
   -378754.5190   21239607.678           0.000
  -3093077.7350   24704698.621           0.000
  -1138579.1910   20250122.029           0.000
 05 10 24 17 52 50.0000000  0  5G30G19G17G11G13
   -345175.3700   23091287.376           0.000
  -1140426.4650   20061033.466           0.000
   -401474.6900   21243591.756           0.000
  -3164075.2920   24699497.773           0.000
  -1173783.6450   20251730.496           0.000
 05 10 24 17 53  0.0000000  0  5G30G19G17G11G13
   -367575.7230   23095330.946           0.000
  -1175011.3250   20062759.233           0.000
   -424145.7200   21247584.672           0.000
  -3235091.2790   24694290.736           0.000
  -1208923.2190   20253349.946           0.000
 05 10 24 17 53 10.0000000  0  5G30G19G17G11G13
   -389946.5220   23099378.641           0.000
  -1209531.0270   20064496.566           0.000
   -446766.7080   21251585.719           0.000
  -3306124.6550   24689079.955           0.000
  -1243997.0720   20254981.820           0.000
 05 10 24 17 53 20.0000000  0  5G30G19G17G11G13
   -412287.5230   23103430.973           0.000
  -1243985.4510   20066244.545           0.000
   -469337.8050   21255595.839           0.000
  -3377175.1750   24683864.795           0.000
  -1279005.0870   20256624.341           0.000
 05 10 24 17 53 30.0000000  0  5G30G19G17G11G13
   -434599.4950   23107491.325           0.000
  -1278375.2900   20068005.267           0.000
   -491859.2880   21259616.554           0.000
  -3448243.4330   24678647.210           0.000
  -1313947.9460   20258281.464           0.000
 05 10 24 17 53 40.0000000  0  5G30G19G17G11G13
   -456882.4300   23111557.120           0.000
  -1312700.6110   20069779.731           0.000
   -514331.6970   21263646.719           0.000
  -3519329.3920   24673426.196           0.000
  -1348825.8050   20259951.328           0.000
 05 10 24 17 53 50.0000000  0  5G30G19G17G11G13
   -479135.7520   23115631.189           0.000
  -1346960.9420   20071568.479           0.000
   -536754.6020   21267688.021           0.000
  -3590432.3490   24668203.869           0.000
  -1383637.9470   20261634.760           0.000
 05 10 24 17 54  0.0000000  0  5G30G19G17G11G13
   -501359.9290   23119708.236           0.000
  -1381156.7710   20073368.218           0.000
   -559128.3350   21271737.451           0.000
  -3661552.6740   24662976.793           0.000
  -1418385.0790   20263329.326           0.000
 05 10 24 17 54 10.0000000  0  5G30G19G17G11G13
   -523555.6040   23123793.882           0.000
  -1415288.8200   20075183.281           0.000
   -581453.6360   21275798.628           0.000
  -3732690.9240   24657747.727           0.000
  -1453067.7630   20265038.645           0.000
 05 10 24 17 54 20.0000000  0  5G30G19G17G11G13
   -545722.3500   23127888.366           0.000
  -1449356.7290   20077012.907           0.000
   -603730.2690   21279870.790           0.000
  -3803846.6000   24652517.913           0.000
  -1487685.6390   20266761.953           0.000
 05 10 24 17 54 30.0000000  0  5G30G19G17G11G13
   -567859.4850   23131980.869           0.000
  -1483359.6900   20078848.277           0.000
   -625957.5980   21283947.695           0.000
  -3875018.8780   24647279.820           0.000
  -1522238.0270   20268492.866           0.000
 05 10 24 17 54 40.0000000  0  5G30G19G17G11G13
   -589967.5630   23136081.728           0.000
  -1517298.4460   20080697.442           0.000
   -648136.2730   21288034.818           0.000
  -3946208.3130   24642039.782           0.000
  -1556725.4990   20270237.860           0.000
 05 10 24 17 54 50.0000000  0  7G30G12G19G17G11G13G22
   -612046.0950   23140190.579           0.000
         0.0000   24410167.875           0.000
  -1551172.5540   20082560.609           0.000
   -670265.8770   21292132.794           0.000
  -4017414.2460   24636798.721           0.000
  -1591147.5980   20271997.572           0.000
   1034065.4280   21833642.709           0.000
 05 10 24 17 55  0.0000000  0  8G30G12G19G17G11G13G14G22
   -634094.8270   23144304.144           0.000
    990290.8100   24407284.817           0.000
  -1584981.7740   20084435.930           0.000
   -692346.1500   21296239.490           0.000
  -4088636.2720   24631554.789           0.000
  -1625504.1250   20273769.151           0.000
         0.0000   23043985.689           0.000
   1006456.5710   21836697.823           0.000
 05 10 24 17 55 10.0000000  0  8G30G12G19G17G11G13G14G22
   -656113.0310   23148418.363           0.000
    931496.9970   24404396.547           0.000
  -1618725.5780   20086318.201           0.000
   -714376.5890   21300351.420           0.000
  -4159873.7190   24626302.354           0.000
  -1659794.4640   20275547.967           0.000
   1018107.4530   23047834.043           0.000
    978855.6020   21839749.727           0.000
 05 10 24 17 55 20.0000000  0  9G30G 6G12G19G17G11G13G14G22
   -678100.8050   23152550.736           0.000
   1008047.8830   23402225.534           0.000
    872719.7190   24401528.004           0.000
  -1652403.9690   20088226.496           0.000
   -736357.2180   21304484.508           0.000
  -4231126.4800   24621059.917           0.000
  -1694018.5800   20277351.661           0.000
    994680.6490   23051691.822           0.000
    951262.5400   21842815.063           0.000
 05 10 24 17 55 30.0000000  0  9G30G 6G12G19G17G11G13G14G22
   -700059.0270   23156679.018           0.000
    940206.3190   23397624.637           0.000
    813957.9710   24398654.655           0.000
  -1686017.9220   20090139.286           0.000
   -758289.1740   21308620.088           0.000
  -4302395.4110   24615808.523           0.000
  -1728177.4650   20279160.853           0.000
    971249.1450   23055542.792           0.000
    923676.2590   21845873.877           0.000
 05 10 24 17 55 40.0000000  0  9G30G 6G12G19G17G11G13G14G22
   -721986.9410   23160810.209           0.000
    872378.9810   23393023.500           0.000
    755212.4700   24395781.354           0.000
  -1719566.6840   20092059.993           0.000
   -780171.6230   21312760.866           0.000
  -4373679.5790   24610548.735           0.000
  -1762270.3480   20280978.534           0.000
    947813.9830   23059390.804           0.000
    896097.7130   21848930.877           0.000
 05 10 24 17 55 50.0000000  0  9G30G 6G12G19G17G11G13G14G22
   -743884.6190   23164948.356           0.000
    804565.8310   23388421.879           0.000
    696483.1310   24392910.143           0.000
  -1753050.4120   20093992.950           0.000
   -802004.5040   21316910.317           0.000
  -4444978.9910   24605285.313           0.000
  -1796297.3820   20282808.322           0.000
    924374.8890   23063237.473           0.000
    868526.7350   21851989.681           0.000
 05 10 24 17 56  0.0000000  0  9G30G 6G12G19G17G11G13G14G22
   -765753.3050   23169095.083           0.000
    736765.8490   23383824.974           0.000
    637768.6910   24390041.502           0.000
  -1786470.4180   20095940.211           0.000
   -823789.4140   21321071.640           0.000
  -4516294.8150   24600021.314           0.000
  -1830259.8690   20284652.270           0.000
    900930.6960   23067083.135           0.000
    840961.9910   21855050.770           0.000
 05 10 24 17 56 10.0000000  0  9G30G 6G12G19G17G11G13G14G22
   -787591.5120   23173247.802           0.000
    668980.5150   23379229.053           0.000
    579070.5130   24387175.849           0.000
  -1819825.3120   20097898.187           0.000
   -845525.0520   21325240.529           0.000
  -4587625.4560   24594753.433           0.000
  -1864156.3880   20286506.791           0.000
    877482.8090   23070926.060           0.000
    813404.9240   21858111.841           0.000
 05 10 24 17 56 20.0000000  0  9G30G 6G12G19G17G11G13G14G22
   -809399.9090   23177403.098           0.000
    601209.4450   23374636.281           0.000
    520388.1810   24384314.775           0.000
  -1853115.7330   20099867.610           0.000
   -867212.1260   21329417.431           0.000
  -4658971.4030   24589480.831           0.000
  -1897987.4120   20288373.187           0.000
    854030.7090   23074766.696           0.000
    785854.9460   21861174.343           0.000
 05 10 24 17 56 30.0000000  0  9G30G 6G12G19G17G11G13G14G22
   -831179.7450   23181562.380           0.000
    533451.5190   23370047.353           0.000
    461720.2530   24381455.828           0.000
  -1886342.9610   20101848.604           0.000
   -888851.8220   21333603.185           0.000
  -4730333.8720   24584205.062           0.000
  -1931754.3930   20290251.728           0.000
    830573.1780   23078606.884           0.000
    758310.8730   21864237.828           0.000
 05 10 24 17 56 40.0000000  0 10G15G30G 6G12G19G17G11G13G14G22
   1010583.1970   22076127.030           0.000
   -852930.0280   23185725.898           0.000
    465707.6760   23365458.224           0.000
    403067.8250   24378599.972           0.000
  -1919506.1970   20103841.560           0.000
   -910443.3340   21337798.613           0.000
  -4801711.7590   24578926.230           0.000
  -1965456.3680   20292141.515           0.000
    807111.0410   23082445.583           0.000
    730773.6010   21867300.826           0.000
 05 10 24 17 56 50.0000000  0 10G15G30G 6G12G19G17G11G13G14G22
    960722.1480   22074942.147           0.000
   -874650.2820   23189897.661           0.000
    397978.6550   23360874.621           0.000
    344431.0520   24375747.209           0.000
  -1952604.9700   20105848.486           0.000
   -931986.3530   21342005.004           0.000
  -4873104.5610   24573645.054           0.000
  -1999092.9010   20294045.700           0.000
    783644.7260   23086283.512           0.000
    703243.5000   21870366.774           0.000
 05 10 24 17 57  0.0000000  0 10G15G30G 6G12G19G17G11G13G14G22
    910916.6450   22073767.059           0.000
   -896341.2620   23194071.921           0.000
    330263.7970   23356293.802           0.000
    285809.3130   24372896.371           0.000
  -1985640.1120   20107866.780           0.000
   -953481.6330   21346219.330           0.000
  -4944512.8950   24568359.507           0.000
  -2032664.8120   20295961.540           0.000
    760173.6190   23090123.081           0.000
    675719.8640   21873433.360           0.000
 05 10 24 17 57 10.0000000  0 10G15G30G 6G12G19G17G11G13G14G22
    861166.5220   22072603.512           0.000
   -918003.1340   23198253.430           0.000
    262563.0140   23351714.794           0.000
    227202.3450   24370048.060           0.000
  -2018611.8620   20109897.331           0.000
   -974929.4970   21350443.337           0.000
  -5015936.8820   24563072.338           0.000
  -2066172.3650   20297890.496           0.000
    736697.4060   23093960.740           0.000
    648202.4210   21876501.614           0.000
 05 10 24 17 57 20.0000000  0 10G15G30G 6G12G19G17G11G13G14G22
         0.0000   22071448.012           0.000
   -939635.6660   23202438.692           0.000
    194876.6550   23347140.112           0.000
    168610.5520   24367202.072           0.000
  -2051519.9950   20111937.789           0.000
   -996329.6600   21354675.820           0.000
  -5087376.1100   24557782.053           0.000
  -2099615.3160   20299830.790           0.000
    713216.5100   23097797.144           0.000
    620691.4610   21879571.045           0.000
 05 10 24 17 57 30.0000000  0 10G15G30G 6G12G19G17G11G13G14G22
    761833.3390   22070307.489           0.000
   -961238.4610   23206634.067           0.000
    127205.3610   23342570.821           0.000
    110034.2780   24364360.043           0.000
  -2084363.9950   20113993.796           0.000
  -1017681.7530   21358918.558           0.000
  -5158830.0490   24552489.718           0.000
  -2132993.0980   20301784.630           0.000
    689731.3210   23101631.069           0.000
    593187.3650   21882642.147           0.000
 05 10 24 17 57 40.0000000  0 10G15G30G 6G12G19G17G11G13G14G22
    712250.6940   22069174.682           0.000
   -982811.5840   23210832.294           0.000
     59549.1700   23337999.659           0.000
     51473.3430   24361517.860           0.000
  -2117144.1300   20116058.093           0.000
  -1038985.9900   21363166.866           0.000
  -5230298.6760   24547191.935           0.000
  -2166305.9660   20303747.474           0.000
    666241.7320   23105465.269           0.000
    565690.0610   21885712.093           0.000
 05 10 24 17 57 50.0000000  0 10G15G30G 6G12G19G17G11G13G14G22
    662723.8820   22068054.658           0.000
  -1004355.0790   23215036.004           0.000
     -8091.9150   23333431.548           0.000
     -7072.3640   24358680.447           0.000
  -2149860.6580   20118134.885           0.000
  -1060242.4610   21367424.666           0.000
  -5301782.0130   24541893.197           0.000
  -2199554.0200   20305723.243           0.000
    642747.6640   23109297.370           0.000
    538199.4820   21888782.945           0.000
 05 10 24 17 58  0.0000000  0 10G15G30G 6G12G19G17G11G13G14G22
    613253.0570   22066942.331           0.000
  -1025868.9470   23219244.121           0.000
    -75717.8330   23328863.981           0.000
    -65602.7560   24355845.293           0.000
  -2182513.4660   20120222.809           0.000
  -1081451.2900   21371690.449           0.000
  -5373279.9740   24536589.422           0.000
  -2232737.3290   20307710.145           0.000
    619249.0420   23113128.011           0.000
    510715.5620   21891854.340           0.000
 05 10 24 17 58 10.0000000  0 10G15G30G 6G12G19G17G11G13G14G22
    563837.8880   22065837.594           0.000
  -1047353.3930   23223458.826           0.000
   -143328.4750   23324302.429           0.000
   -124118.0390   24353013.293           0.000
  -2215102.7180   20122324.618           0.000
  -1102612.8810   21375966.111           0.000
  -5444792.5310   24531283.792           0.000
  -2265856.0120   20309710.788           0.000
    595745.7420   23116958.656           0.000
    483238.1400   21894929.890           0.000
 05 10 24 17 58 20.0000000  0 10G15G30G 6G12G19G17G11G13G14G22
    514478.1250   22064743.459           0.000
  -1068808.7920   23227678.696           0.000
   -210924.1620   23319742.035           0.000
   -182618.6180   24350183.453           0.000
  -2247628.8750   20124437.173           0.000
  -1123727.5930   21380248.941           0.000
  -5516320.0200   24525974.169           0.000
  -2298910.5070   20311723.035           0.000
         0.0000   23120780.301           0.000
    455766.8210   21898004.166           0.000
 05 10 24 17 58 30.0000000  0  9G15G30G 6G12G19G17G11G13G22
    465174.8170   22063664.097           0.000
  -1090234.0750   23231903.752           0.000
   -278503.7940   23315184.252           0.000
   -241103.4770   24347357.369           0.000
  -2280090.9860   20126560.924           0.000
  -1144794.5490   21384540.678           0.000
  -5587861.3560   24520661.290           0.000
  -2331899.8560   20313747.195           0.000
    428302.5950   21901079.907           0.000
 05 10 24 17 58 40.0000000  0 10G15G30G 6G12G19G17G11G13G14G22
    415927.7730   22062603.125           0.000
  -1111629.3940   23236140.758           0.000
   -346067.2520   23310636.415           0.000
   -299572.8850   24344537.653           0.000
  -2312489.1720   20128703.923           0.000
  -1165813.9030   21388850.088           0.000
  -5659416.4820   24515352.633           0.000
  -2364824.1590   20315790.458           0.000
   1038722.0830   23128437.901           0.000
    400845.2440   21904162.305           0.000
 05 10 24 17 58 50.0000000  0 10G15G30G 6G12G19G17G11G13G14G22
    366736.2710   22061545.691           0.000
  -1132995.4170   23240373.862           0.000
   -413615.1620   23306082.531           0.000
   -358027.4760   24341714.465           0.000
  -2344824.2790   20130850.890           0.000
  -1186786.3620   21393159.603           0.000
  -5730986.0070   24510034.495           0.000
  -2397684.2340   20317837.118           0.000
   1015201.0120   23132265.196           0.000
    373394.1970   21907238.510           0.000
 05 10 24 17 59  0.0000000  0 10G15G30G 6G12G19G17G11G13G14G22
    317600.8980   22060495.265           0.000
  -1154331.7360   23244613.831           0.000
   -481146.9380   23301531.504           0.000
   -416466.7450   24338894.422           0.000
  -2377095.8880   20133010.446           0.000
  -1207711.6010   21397478.130           0.000
  -5802569.3900   24504713.920           0.000
  -2430479.6560   20319896.509           0.000
    991675.5800   23136092.202           0.000
    345949.9240   21910316.287           0.000
 05 10 24 17 59 10.0000000  0 10G15G30G 6G12G19G17G11G13G14G22
    268521.4770   22059455.971           0.000
  -1175638.4400   23248861.211           0.000
   -548662.6400   23296984.598           0.000
   -474890.9200   24336079.643           0.000
  -2409304.3650   20135183.136           0.000
  -1228589.8100   21401807.358           0.000
  -5874166.7000   24499390.025           0.000
  -2463210.5500   20321969.321           0.000
    968145.6370   23139914.885           0.000
    318512.2190   21913397.468           0.000
 05 10 24 17 59 20.0000000  0 10G15G30G 6G12G19G17G11G13G14G22
    219497.6330   22058426.237           0.000
  -1196915.9970   23253113.428           0.000
   -616162.4910   23292440.812           0.000
   -533300.3940   24333267.412           0.000
  -2441449.9510   20137367.389           0.000
  -1249421.4850   21406145.002           0.000
  -5945778.1790   24494063.525           0.000
  -2495877.3590   20324054.697           0.000
    944610.8990   23143738.399           0.000
    291080.6770   21916477.762           0.000
 05 10 24 17 59 30.0000000  0 10G15G30G 6G12G19G17G11G13G14G22
    170530.8670   22057408.204           0.000
  -1218162.8760   23257369.907           0.000
   -683644.9420   23287899.856           0.000
   -591693.7830   24330456.009           0.000
  -2473531.2710   20139562.628           0.000
  -1270205.2740   21410490.054           0.000
  -6017402.3290   24488732.416           0.000
  -2528478.7170   20326151.203           0.000
    921072.6360   23147562.024           0.000
    263656.7280   21919559.599           0.000
 05 10 24 17 59 40.0000000  0 10G15G30G 6G12G19G17G11G13G14G22
    121619.8500   22056400.957           0.000
  -1239380.4270   23261633.451           0.000
   -751111.0590   23283362.245           0.000
   -650072.4040   24327647.378           0.000
  -2505549.6140   20141771.086           0.000
  -1290942.5140   21414845.177           0.000
  -6089040.2890   24483401.504           0.000
  -2561015.8950   20328260.928           0.000
    897529.7810   23151384.416           0.000
    236239.0540   21922642.778           0.000
 05 10 24 17 59 50.0000000  0 10G15G30G 6G12G19G17G11G13G14G22
     72764.0960   22055405.927           0.000
  -1260569.0890   23265902.630           0.000
   -818561.3030   23278827.264           0.000
   -708436.7760   24324842.092           0.000
  -2537505.6710   20143991.189           0.000
  -1311633.7290   21419209.226           0.000
  -6160692.5090   24478066.782           0.000
  -2593489.4250   20330382.440           0.000
    873981.6650   23155204.286           0.000
    208827.0440   21925727.299           0.000
 05 10 24 18  0  0.0000000  0 10G15G30G 6G12G19G17G11G13G14G22
     23963.9770   22054422.970           0.000
  -1281728.4750   23270178.872           0.000
   -885995.1310   23274294.339           0.000
   -766786.4820   24322038.290           0.000
  -2569399.0150   20146222.791           0.000
  -1332278.6880   21423581.340           0.000
  -6232358.4460   24472729.823           0.000
  -2625898.9190   20332515.881           0.000
    850428.8680   23159022.349           0.000
    181421.1550   21928813.732           0.000
 05 10 24 18  0 10.0000000  0 10G15G30G 6G12G19G17G11G13G14G22
    -24780.2200   22053451.796           0.000
  -1302858.4600   23274459.745           0.000
   -953412.1630   23269766.330           0.000
   -825121.3360   24319236.827           0.000
  -2601229.5550   20148467.465           0.000
  -1352877.2710   21427962.949           0.000
  -6304037.7900   24467390.769           0.000
  -2658244.2990   20334662.395           0.000
    826871.4560   23162842.036           0.000
    154021.5650   21931901.361           0.000
 05 10 24 18  0 20.0000000  0  9G15G30G 6G12G19G17G11G14G22
    -73468.7430   22052487.424           0.000
  -1323959.1600   23278744.271           0.000
  -1020812.6050   23265238.826           0.000
   -883441.6380   24316438.447           0.000
  -2632997.4540   20150721.804           0.000
  -1373429.7550   21432351.217           0.000
  -6375730.6490   24462048.786           0.000
    803309.2510   23166659.224           0.000
    126628.0760   21934987.636           0.000
 05 10 24 18  0 30.0000000  0 10G15G30G 6G12G19G17G11G13G14G22
   -122101.8040   22051530.660           0.000
  -1345030.7260   23283031.253           0.000
  -1088196.3850   23260714.350           0.000
   -941747.6340   24313643.809           0.000
  -2664702.9610   20152987.898           0.000
  -1393936.3940   21436747.521           0.000
  -6447437.1150   24456704.966           0.000
  -2722743.6340   20338987.077           0.000
    779742.1490   23170473.859           0.000
     99240.5210   21938075.507           0.000
 05 10 24 18  0 40.0000000  0 10G15G30G 6G12G19G17G11G13G14G22
   -170679.2110   22050585.167           0.000
  -1366073.0730   23287328.363           0.000
  -1155563.2260   23256195.138           0.000
  -1000038.9430   24310849.569           0.000
  -2696346.1690   20155266.553           0.000
  -1414397.0460   21441155.098           0.000
  -6519156.8400   24451359.254           0.000
  -2754897.6570   20341169.002           0.000
    756170.3170   23174288.320           0.000
     71859.0970   21941164.778           0.000
 05 10 24 18  0 50.0000000  0 10G15G30G 6G12G19G17G11G13G14G22
   -219201.8170   22049653.372           0.000
  -1387087.0250   23291630.583           0.000
  -1222913.8180   23251680.034           0.000
  -1058316.5420   24308060.011           0.000
  -2727927.8350   20157557.331           0.000
  -1434812.6580   21445572.079           0.000
  -6590890.6450   24446008.923           0.000
  -2786988.7580   20343363.622           0.000
    732592.8540   23178101.739           0.000
     44482.8240   21944257.014           0.000
 05 10 24 18  1  0.0000000  0 10G15G30G 6G12G19G17G11G13G14G22
   -267668.0300   22048731.923           0.000
  -1408071.1330   23295938.572           0.000
  -1290246.6900   23247166.549           0.000
  -1116578.9910   24305272.214           0.000
  -2759446.6110   20159860.458           0.000
  -1455181.9310   21449997.116           0.000
  -6662636.9360   24440655.059           0.000
  -2819015.3620   20345570.020           0.000
    709011.2300   23181915.631           0.000
     17113.2390   21947350.008           0.000
 05 10 24 18  1 10.0000000  0 10G15G30G 6G12G19G17G11G13G14G22
   -316078.6000   22047820.780           0.000
  -1429026.1520   23300251.142           0.000
  -1357562.3640   23242656.930           0.000
         0.0000   24302486.424           0.000
  -2790903.2360   20162173.892           0.000
  -1475505.6950   21454429.312           0.000
  -6734396.3720   24435298.193           0.000
  -2850978.4660   20347787.152           0.000
    685424.7120   23185727.809           0.000
    -10250.4080   21950443.007           0.000
 05 10 24 18  1 20.0000000  0 10G15G30G 6G12G19G17G11G13G14G22
   -364434.1820   22046921.318           0.000
  -1449952.5400   23304567.953           0.000
  -1424861.2440   23238150.693           0.000
         0.0000   24299704.731           0.000
  -2822298.2790   20164499.149           0.000
  -1495784.4670   21458869.754           0.000
  -6806169.3670   24429939.701           0.000
  -2882878.5680   20350015.823           0.000
    661832.8110   23189537.359           0.000
    -37608.7320   21953536.382           0.000
 05 10 24 18  1 30.0000000  0 10G15G30G 6G12G19G17G11G13G14G22
   -412732.3380   22046022.095           0.000
  -1470848.1610   23308883.000           0.000
  -1492140.9810   23233639.687           0.000
         0.0000   24296920.415           0.000
  -2853629.6340   20166827.794           0.000
  -1516016.2340   21463310.722           0.000
  -6877953.6120   24424569.571           0.000
  -2914713.3960   20352248.739           0.000
    638237.7440   23193338.133           0.000
    -64959.3580   21956622.841           0.000
 05 10 24 18  1 40.0000000  0 10G15G30G 6G12G19G17G11G13G14G22
   -460974.2290   22045143.174           0.000
  -1491713.9030   23313209.763           0.000
  -1559402.4260   23229139.539           0.000
         0.0000   24294140.375           0.000
  -2884898.2460   20169176.168           0.000
  -1536202.0160   21467767.841           0.000
  -6949749.8860   24419203.716           0.000
  -2946484.0460   20354501.241           0.000
    614638.6430   23197145.616           0.000
    -92303.3660   21959718.012           0.000
 05 10 24 18  1 50.0000000  0  9G15G30G 6G19G17G11G13G14G22
   -509160.2800   22044271.964           0.000
  -1512550.3870   23317540.231           0.000
  -1626645.9810   23224640.376           0.000
  -2916104.7160   20171534.257           0.000
  -1556342.3870   21472231.241           0.000
  -7021558.7790   24413835.556           0.000
  -2978191.1600   20356763.745           0.000
    591034.8540   23200950.936           0.000
   -119641.3580   21962812.309           0.000
 05 10 24 18  2  0.0000000  0  9G15G30G 6G19G17G11G13G14G22
   -557289.1940   22043411.364           0.000
  -1533356.3010   23321879.448           0.000
  -1693870.2460   23220147.387           0.000
  -2947247.8260   20173905.817           0.000
  -1576436.1810   21476705.394           0.000
  -7093378.8030   24408466.559           0.000
  -3009833.4370   20359041.007           0.000
    567427.6550   23204756.277           0.000
   -146972.1080   21965910.203           0.000
 05 10 24 18  2 10.0000000  0  9G15G30G 6G19G17G11G13G14G22
   -605361.5320   22042560.496           0.000
  -1554132.0680   23326224.534           0.000
  -1761075.4470   23215655.975           0.000
  -2978328.0840   20176289.255           0.000
  -1596483.7800   21481188.421           0.000
  -7165210.2500   24403096.276           0.000
  -3041411.2990   20361330.434           0.000
    543816.6980   23208561.620           0.000
   -174295.9600   21969008.386           0.000
 05 10 24 18  2 20.0000000  0  9G15G30G 6G19G17G11G13G14G22
   -653377.4530   22041719.562           0.000
  -1574877.8950   23330575.261           0.000
  -1828261.9740   23211168.916           0.000
  -3009345.8640   20178684.488           0.000
  -1616485.5890   21485679.235           0.000
  -7237053.3440   24397723.334           0.000
  -3072925.0840   20363630.797           0.000
    520201.6690   23212366.023           0.000
   -201613.2000   21972107.202           0.000
 05 10 24 18  2 30.0000000  0  9G15G30G 6G19G17G11G13G14G22
   -701337.8710   22040892.707           0.000
  -1595594.7430   23334931.195           0.000
  -1895430.3610   23206681.340           0.000
  -3040302.0610   20181090.939           0.000
  -1636442.6850   21490178.834           0.000
  -7308908.8390   24392346.156           0.000
  -3104375.7420   20365943.665           0.000
    496581.7870   23216165.043           0.000
   -228924.7480   21975207.791           0.000
 05 10 24 18  2 40.0000000  0  9G15G30G 6G19G17G11G13G14G22
         0.0000   22040076.734           0.000
  -1616281.1410   23339289.426           0.000
  -1962579.0430   23202195.632           0.000
  -3071195.2500   20183507.555           0.000
  -1656353.7490   21494685.737           0.000
  -7380775.2180   24386965.408           0.000
  -3135761.9230   20368266.986           0.000
    472958.2870   23219963.356           0.000
   -256229.2370   21978306.813           0.000
 05 10 24 18  2 50.0000000  0  8G30G 6G19G17G11G13G14G22
  -1636937.3490   23343652.168           0.000
  -2112984.1030   23197715.722           0.000
  -3102025.8230   20185934.979           0.000
  -1676218.9320   21499199.727           0.000
  -7452652.5050   24381583.304           0.000
  -3167083.8050   20370600.685           0.000
    449331.2320   23223761.886           0.000
   -283526.7900   21981407.341           0.000
 05 10 24 18  3  0.0000000  0  8G30G 6G19G17G11G13G14G22
  -1657564.9960   23348022.742           0.000
  -2180095.0910   23193240.925           0.000
  -3132795.4260   20188374.241           0.000
  -1696040.0230   21503722.980           0.000
  -7524542.3200   24376198.299           0.000
  -3198343.0270   20372947.509           0.000
    425698.7320   23227561.093           0.000
   -310819.1100   21984509.119           0.000
 05 10 24 18  3 10.0000000  0  8G30G 6G19G17G11G13G14G22
  -1678163.8030   23352399.599           0.000
  -2247187.7120   23188768.978           0.000
  -3163503.9350   20190825.796           0.000
  -1715816.8960   21508254.519           0.000
  -7596444.3490   24370811.422           0.000
  -3229539.5490   20375307.343           0.000
    402061.3110   23231359.573           0.000
   -338106.0340   21987612.744           0.000
 05 10 24 18  3 20.0000000  0  8G30G 6G19G17G11G13G14G22
  -1698733.5530   23356782.869           0.000
  -2314261.5460   23184305.018           0.000
  -3194151.0720   20193289.918           0.000
  -1735549.3160   21512795.906           0.000
  -7668358.1810   24365423.518           0.000
  -3260673.0270   20377679.170           0.000
    378418.9520   23235157.454           0.000
   -365387.2080   21990717.774           0.000
 05 10 24 18  3 30.0000000  0  8G30G 6G19G17G11G13G14G22
  -1719273.1450   23361170.118           0.000
  -2381315.3360   23179842.174           0.000
  -3224735.6640   20195767.175           0.000
  -1755236.2840   21517346.566           0.000
  -7740282.5590   24360033.009           0.000
  -3291742.4260   20380062.846           0.000
    354772.9790   23238954.020           0.000
   -392661.5390   21993824.493           0.000
 05 10 24 18  3 40.0000000  0  8G30G 6G19G17G11G13G14G22
  -1739783.6420   23365561.585           0.000
  -2448350.0150   23175381.975           0.000
  -3255258.9110   20198254.089           0.000
  -1774879.0100   21521904.019           0.000
  -7812218.4760   24354638.420           0.000
  -3322748.9330   20382456.749           0.000
    331122.2370   23242750.940           0.000
   -419930.1760   21996930.995           0.000
 05 10 24 18  3 50.0000000  0  8G30G 6G19G17G11G13G14G22
  -1760264.2100   23369960.688           0.000
  -2515364.6020   23170923.974           0.000
  -3285720.1870   20200753.646           0.000
  -1794476.6300   21526470.254           0.000
  -7884165.0210   24349242.165           0.000
  -3353691.8340   20384863.297           0.000
    307467.6210   23246545.765           0.000
   -447192.2490   22000038.693           0.000
 05 10 24 18  4  0.0000000  0  8G30G 6G19G17G11G13G14G22
  -1780715.2570   23374364.671           0.000
  -2582359.3630   23166471.856           0.000
  -3316119.9100   20203264.667           0.000
  -1814029.6780   21531045.518           0.000
  -7956122.4660   24343845.640           0.000
  -3384571.3700   20387283.311           0.000
    283808.6830   23250337.172           0.000
   -474448.2200   22003147.981           0.000
 05 10 24 18  4 10.0000000  0  8G30G 6G19G17G11G13G14G22
  -1801136.5480   23378771.395           0.000
  -2649333.8470   23162019.758           0.000
  -3346457.9550   20205785.296           0.000
  -1833537.9620   21535627.386           0.000
  -8028090.4810   24338443.984           0.000
  -3415387.3050   20389713.363           0.000
    260145.6880   23254128.028           0.000
   -501697.8160   22006255.573           0.000
 05 10 24 18  4 20.0000000  0  8G30G 6G19G17G11G13G14G22
  -1821528.9920   23383182.795           0.000
  -2716289.0020   23157570.334           0.000
  -3376735.1870   20208316.325           0.000
  -1853002.3960   21540215.934           0.000
  -8100069.7510   24333038.563           0.000
  -3446140.6690   20392154.530           0.000
    236477.8650   23257919.983           0.000
   -528941.8760   22009363.119           0.000
 05 10 24 18  4 30.0000000  0  8G30G 6G19G17G11G13G14G22
  -1841892.6680   23387599.454           0.000
  -2783224.7340   23153126.742           0.000
  -3406951.8040   20210859.053           0.000
  -1872423.3590   21544813.033           0.000
  -8172060.4530   24327631.390           0.000
  -3476831.6670   20394606.967           0.000
    212804.9230   23261710.186           0.000
   -556180.7030   22012471.919           0.000
 05 10 24 18  4 40.0000000  0  8G30G 6G19G17G11G13G14G22
  -1862228.2850   23392029.629           0.000
  -2850141.5360   23148691.656           0.000
  -3437108.5170   20213419.588           0.000
  -1891801.5270   21549424.934           0.000
  -8244063.0150   24322229.146           0.000
  -3507460.9960   20397076.639           0.000
    189126.2840   23265503.316           0.000
   -583414.8200   22015588.223           0.000
 05 10 24 18  4 50.0000000  0  9G15G30G 6G19G17G11G13G14G22
    -24006.6170   22030363.953           0.000
  -1882535.1570   23396469.543           0.000
  -2917038.5880   23144264.307           0.000
  -3467204.7300   20215995.730           0.000
  -1911136.2400   21554048.864           0.000
  -8316076.6860   24316828.342           0.000
  -3538028.0000   20399563.062           0.000
    165442.6160   23269300.747           0.000
   -610643.6180   22018709.259           0.000
 05 10 24 18  5  0.0000000  0  9G15G30G 6G19G17G11G13G14G22
    -71128.4540   22029689.313           0.000
  -1902812.2110   23400907.577           0.000
  -2983914.8830   23139835.793           0.000
  -3497239.4530   20218577.146           0.000
  -1930426.5410   21558674.778           0.000
  -8388100.3780   24311419.077           0.000
  -3568531.7270   20402056.048           0.000
    141754.9680   23273089.573           0.000
   -637866.0450   22021826.412           0.000
 05 10 24 18  5 10.0000000  0  9G15G30G 6G19G17G11G13G14G22
   -118195.0420   22029028.790           0.000
  -1923060.6850   23405347.566           0.000
  -3050771.3350   23135407.374           0.000
  -3527213.9130   20221166.957           0.000
  -1949673.7440   21563304.936           0.000
  -8460135.1260   24306005.327           0.000
  -3598973.4110   20404555.996           0.000
         0.0000   23276873.199           0.000
   -665083.2470   22024940.081           0.000
 05 10 24 18  5 20.0000000  0  8G15G30G 6G19G17G11G13G22
   -165206.1100   22028374.492           0.000
  -1943280.2340   23409790.345           0.000
  -3117607.5870   23130978.025           0.000
  -3557127.9520   20223764.852           0.000
  -1968877.7170   21567940.889           0.000
  -8532180.4910   24300587.498           0.000
  -3629352.7700   20407065.174           0.000
   -692295.0360   22028053.393           0.000
 05 10 24 18  5 30.0000000  0  8G15G30G 6G19G17G11G13G22
   -212160.5970   22027732.902           0.000
  -1963469.9440   23414241.397           0.000
  -3184422.5720   23126558.236           0.000
  -3586980.6000   20226378.317           0.000
  -1988037.5180   21572588.550           0.000
  -8604235.4790   24295169.787           0.000
  -3659668.8890   20409590.495           0.000
   -719500.4130   22031169.541           0.000
 05 10 24 18  5 40.0000000  0  8G15G30G 6G19G17G11G13G22
   -259059.3820   22027102.441           0.000
  -1983630.5790   23418696.709           0.000
  -3251216.7120   23122139.560           0.000
  -3616772.7100   20229001.194           0.000
  -2007154.0010   21577243.618           0.000
  -8676300.6500   24289745.889           0.000
  -3689922.5370   20412125.227           0.000
   -746700.1110   22034285.799           0.000
 05 10 24 18  5 50.0000000  0  8G15G30G 6G19G17G11G13G22
   -305902.8890   22026481.543           0.000
  -2003762.6160   23423154.429           0.000
  -3317990.6390   23117721.717           0.000
  -3646504.8480   20231633.347           0.000
  -2026227.7340   21581904.385           0.000
  -8748376.4750   24284319.964           0.000
  -3720114.3590   20414669.665           0.000
   -773894.7740   22037401.746           0.000
 05 10 24 18  6  0.0000000  0  8G15G30G 6G19G17G11G13G22
   -352690.5440   22025870.139           0.000
  -2023865.4110   23427617.780           0.000
  -3384743.4550   23113304.783           0.000
  -3676176.4350   20234274.995           0.000
  -2045258.1630   21586571.356           0.000
  -8820462.1560   24278891.370           0.000
  -3750243.6940   20417223.455           0.000
   -801083.6310   22040515.883           0.000
 05 10 24 18  6 10.0000000  0  8G15G30G 6G19G17G11G13G22
   -399422.9600   22025269.868           0.000
  -2043939.6850   23432086.827           0.000
  -3451475.8110   23108896.264           0.000
  -3705788.2090   20236929.207           0.000
  -2064246.0920   21591248.029           0.000
  -8892558.3530   24273460.889           0.000
  -3780311.2450   20419791.382           0.000
   -828267.4570   22043632.282           0.000
 05 10 24 18  6 20.0000000  0  8G15G30G 6G19G17G11G13G22
   -446101.1980   22024681.085           0.000
  -2063986.3770   23436564.070           0.000
  -3518188.3670   23104492.937           0.000
  -3735341.1710   20239596.338           0.000
  -2083192.5140   21595933.472           0.000
  -8964665.8080   24268029.446           0.000
  -3810318.0330   20422373.087           0.000
   -855447.1900   22046750.438           0.000
 05 10 24 18  6 30.0000000  0  8G15G30G 6G19G17G11G13G22
   -492723.3960   22024102.205           0.000
  -2084003.6700   23441045.493           0.000
  -3584879.2620   23100092.930           0.000
  -3764833.5600   20242275.804           0.000
  -2102095.6760   21600627.815           0.000
  -9036782.6030   24262597.603           0.000
  -3840262.2380   20424967.127           0.000
   -882621.0220   22049870.627           0.000
 05 10 24 18  6 40.0000000  0  8G15G30G 6G19G17G11G13G22
   -539289.8050   22023533.331           0.000
  -2103991.8930   23445532.486           0.000
  -3651548.7760   23095697.921           0.000
  -3794265.9110   20244967.565           0.000
  -2120956.1630   21605330.447           0.000
  -9108909.0420   24257164.319           0.000
  -3870144.4680   20427573.463           0.000
   -909789.3200   22052993.382           0.000
 05 10 24 18  6 50.0000000  0  8G15G30G 6G19G17G11G13G22
   -585799.6060   22022974.904           0.000
  -2123950.2130   23450026.349           0.000
  -3718195.7250   23091307.636           0.000
  -3823637.3090   20247669.774           0.000
  -2139772.9760   21610040.951           0.000
  -9181044.0200   24251728.032           0.000
  -3899963.7050   20430189.101           0.000
   -936951.1230   22056115.279           0.000
 05 10 24 18  7  0.0000000  0  9G15G30G 6G12G19G17G11G13G22
   -632254.3750   22022430.743           0.000
  -2143880.2380   23454532.331           0.000
  -3784821.7200   23086925.606           0.000
         0.0000   24206595.426           0.000
  -3852949.3880   20250387.966           0.000
  -2158547.8610   21614763.861           0.000
  -9253189.0820   24246295.708           0.000
  -3929721.4780   20432822.296           0.000
   -964108.0820   22059243.859           0.000
 05 10 24 18  7 10.0000000  0  9G15G30G 6G12G19G17G11G13G22
   -678653.9390   22021884.668           0.000
  -2163781.6740   23459029.673           0.000
  -3851426.4180   23082534.651           0.000
         0.0000   24203889.951           0.000
  -3882201.9890   20253104.815           0.000
  -2177280.6680   21619481.994           0.000
  -9325343.9190   24240849.306           0.000
  -3959417.8020   20435454.865           0.000
