     2.11           OBSERVATION DATA    GPS                 RINEX VERSION / TYPE
SpecSurv v4.22                          26-May-25 10:42     PGM / RUN BY / DATE
00451420                                                    MARKER NAME         
                                                            MARKER NUMBER       
                                                            OBSERVER / AGENCY   
07430045                                169-614678-005      REC # / TYPE / VERS 
                    <None>                                  ANT # / TYPE        
  3982633.8118 -4353689.6150 -2415263.6243                  APPROX POSITION XYZ 
        0.0000        0.0000        0.0000                  ANTENNA: DELTA H/E/N
     1     1                                                WAVELENGTH FACT L1/2
     1     0     7   G 5   G 6   G13   G14   G15   G17   G19WAVELENGTH FACT L1/2
     1     0     3   G22   G24   G30                        WAVELENGTH FACT L1/2
     3    L1    C1    D1                                    # / TYPES OF OBSERV 
    10.000                                                  INTERVAL            
  2005    10     6    18    24    0.0000000     GPS         TIME OF FIRST OBS   
  2005    10     6    18    45   20.0000000     GPS         TIME OF LAST OBS    
    10                                                      # OF SATELLITES     
   G 5         116                                          PRN / # OF OBS      
   G 6         129                                          PRN / # OF OBS      
   G13         129                                          PRN / # OF OBS      
   G14         129                                          PRN / # OF OBS      
   G15         129                                          PRN / # OF OBS      
   G17         129                                          PRN / # OF OBS      
   G19         129                                          PRN / # OF OBS      
   G22         129                                          PRN / # OF OBS      
   G24         112                                          PRN / # OF OBS      
   G30         129                                          PRN / # OF OBS      
                                                            END OF HEADER       
 05 10  6 18 24  0.0000000  0  9G30G19G17G22G 5G14G 6G13G15
   1015971.0120   22241593.632           0.000
    997763.5910   20047153.518           0.000
   1009657.5480   20569155.138           0.000
   1015114.6950   21079546.424           0.000
   1018461.7720   24648143.052           0.000
   1021662.8620   22014122.836           0.000
    985547.3110   24675170.684           0.000
    997988.3200   20246633.816           0.000
    987789.9320   22851185.539           0.000
 05 10  6 18 24 10.0000000  0  9G30G19G17G22G 5G14G 6G13G15
    975451.6220   22244233.203           0.000
    934803.9230   20045522.797           0.000
    961379.8120   20570318.573           0.000
    973531.4460   21081983.663           0.000
    980995.7210   24651363.147           0.000
    988148.2550   22018095.738           0.000
    907430.2050   24670656.231           0.000
    935301.3620   20245054.322           0.000
    912495.4830   22847208.969           0.000
 05 10  6 18 24 20.0000000  0  9G30G19G17G22G 5G14G 6G13G15
    934894.1620   22246894.123           0.000
    871847.1220   20043920.436           0.000
    913102.4070   20571510.226           0.000
    931901.5330   21084441.535           0.000
    943466.2590   24654601.157           0.000
    954570.4850   22022084.980           0.000
    829231.9360   24666156.116           0.000
    872612.7010   20243504.476           0.000
    837180.5110   22843256.895           0.000
 05 10  6 18 24 30.0000000  0  9G30G19G17G22G 5G14G 6G13G15
    894300.8750   22249564.327           0.000
    808895.4520   20042336.374           0.000
    864827.5000   20572719.604           0.000
    890227.0560   21086907.404           0.000
    905875.2740   24657843.728           0.000
    920931.7110   22026077.926           0.000
    750954.7830   24661654.838           0.000
    809924.6640   20241971.355           0.000
    761847.3700   22839317.826           0.000
 05 10  6 18 24 40.0000000  0  9G30G19G17G22G 5G14G 6G13G15
    853674.0720   22252240.331           0.000
    745951.1270   20040766.411           0.000
    816557.2790   20573941.364           0.000
    848510.2630   21089376.497           0.000
    868225.3310   24661086.376           0.000
    887234.1760   22030070.948           0.000
    672601.1020   24657151.634           0.000
    747239.5110   20240449.900           0.000
    686498.3160   22835386.847           0.000
 05 10  6 18 24 50.0000000  0  9G30G19G17G22G 5G14G 6G13G15
    813015.1410   22254920.743           0.000
    683015.5680   20039208.869           0.000
    768293.1550   20575175.117           0.000
    806752.4060   21091848.567           0.000
    830517.6390   24664326.563           0.000
    853479.2040   22034065.229           0.000
    594172.3590   24652645.827           0.000
    684558.6100   20238939.436           0.000
    611134.7250   22831465.140           0.000
 05 10  6 18 25  0.0000000  0  9G30G19G17G22G 5G14G 6G13G15
    772324.0240   22257607.210           0.000
    620088.7460   20037664.251           0.000
    720035.0320   20576420.791           0.000
    764953.4320   21094323.830           0.000
    792751.8910   24667568.800           0.000
    819666.6900   22038059.700           0.000
    515668.6310   24648134.913           0.000
    621882.0350   20237440.750           0.000
    535756.6620   22827550.634           0.000
 05 10  6 18 25 10.0000000  0  9G30G19G17G22G 5G14G 6G13G15
    731602.6790   22260298.695           0.000
    557172.6840   20036131.664           0.000
    671784.7810   20577678.639           0.000
    723115.2050   21096801.966           0.000
    754929.8710   24670811.189           0.000
    785798.4910   22042053.465           0.000
    437091.8530   24643623.152           0.000
    559211.7670   20235954.810           0.000
    460366.1750   22823643.865           0.000
 05 10  6 18 25 20.0000000  0  9G30G19G17G22G 5G14G 6G13G15
    690852.4260   22262993.127           0.000
    494268.8000   20034609.176           0.000
    623543.6600   20578946.873           0.000
    681238.9260   21099281.902           0.000
    717052.8330   24674053.663           0.000
    751875.8210   22046047.314           0.000
    358443.4610   24639106.179           0.000
    496549.2110   20234478.828           0.000
    384964.4810   22819743.619           0.000
 05 10  6 18 25 30.0000000  0  9G30G19G17G22G 5G14G 6G13G15
    650073.2580   22265693.044           0.000
    431376.9470   20033101.905           0.000
    575311.6800   20580229.465           0.000
    639324.6440   21101766.610           0.000
    679120.7440   24677297.616           0.000
    717898.7080   22050042.357           0.000
    279723.4950   24634585.679           0.000
    433894.3930   20233016.345           0.000
    309551.6840   22815853.724           0.000
 05 10  6 18 25 40.0000000  0  9G30G19G17G22G 5G14G 6G13G15
    609266.4050   22268398.630           0.000
    368498.3740   20031607.027           0.000
    527090.0610   20581524.308           0.000
    597373.4340   21104253.837           0.000
    641134.6630   24680541.370           0.000
    683868.2850   22054037.630           0.000
    200933.3480   24630062.833           0.000
    371248.4020   20231566.255           0.000
    234129.0300   22811972.360           0.000
 05 10  6 18 25 50.0000000  0  9G30G19G17G22G 5G14G 6G13G15
    568434.1550   22271109.032           0.000
    305635.3940   20030123.977           0.000
    478880.9190   20582830.405           0.000
    555387.4360   21106744.593           0.000
    603096.9300   24683784.074           0.000
    649786.7500   22058033.140           0.000
    122075.2530   24625536.647           0.000
    308613.5980   20230127.134           0.000
    158698.8450   22808098.100           0.000
 05 10  6 18 26  0.0000000  0  9G30G19G17G22G 5G14G 6G13G15
    527575.5720   22273824.407           0.000
    242787.1320   20028655.344           0.000
    430683.2270   20584149.203           0.000
    513365.6370   21109238.748           0.000
    565006.2220   24687027.458           0.000
    615653.0960   22062029.045           0.000
     43148.4050   24621009.567           0.000
    245989.0970   20228701.572           0.000
     83260.3210   22804232.821           0.000
 05 10  6 18 26 10.0000000  0  9G30G19G17G22G 5G14G 6G13G15
    486691.7570   22276544.085           0.000
    179954.6400   20027199.171           0.000
    382498.1170   20585479.602           0.000
    471309.1990   21111735.918           0.000
    526863.6330   24690272.427           0.000
    581468.3990   22066024.102           0.000
    -35846.0400   24616476.632           0.000
    183376.0720   20227287.181           0.000
      7814.5090   22800376.567           0.000
 05 10  6 18 26 20.0000000  0  9G30G19G17G22G 5G14G 6G13G15
    445784.0160   22279271.246           0.000
    117139.2970   20025757.492           0.000
    334326.8690   20586824.066           0.000
    429219.1990   21114238.997           0.000
    488670.4840   24693514.147           0.000
    547233.8950   22070020.917           0.000
   -114906.7320   24611942.450           0.000
    120775.7870   20225886.427           0.000
    -67637.2240   22796531.802           0.000
 05 10  6 18 26 30.0000000  0  9G30G19G17G22G 5G14G 6G13G15
    404851.7360   22282003.482           0.000
     54340.4270   20024329.616           0.000
    286168.7670   20588182.333           0.000
    387095.0630   21116745.577           0.000
    450425.7820   24696756.934           0.000
    512948.8860   22074018.658           0.000
   -194034.1630   24607406.188           0.000
     58187.7060   20224498.044           0.000
   -143095.3420   22792694.402           0.000
 05 10  6 18 26 40.0000000  0  9G30G19G17G22G 5G14G 6G13G15
    363896.3870   22284741.155           0.000
     -8440.4840   20022914.046           0.000
    238025.2490   20589552.190           0.000
    344938.0540   21119254.160           0.000
    412130.8280   24700000.723           0.000
    478614.7840   22078015.540           0.000
   -273226.7640   24602868.066           0.000
     -4386.7190   20223121.824           0.000
   -218558.3540   22788863.583           0.000
 05 10  6 18 26 50.0000000  0 10G24G30G19G17G22G 5G14G 6G13G15
         0.0000   25520443.588           0.000
    322919.0940   22287483.372           0.000
    -71202.2580   20021510.175           0.000
    189897.4200   20590932.745           0.000
    302749.3460   21121765.426           0.000
    373786.7410   24703245.336           0.000
    444232.6780   22082011.242           0.000
   -352483.3850   24598324.901           0.000
    -66946.3180   20221756.588           0.000
   -294025.1310   22785042.031           0.000
 05 10  6 18 27  0.0000000  0 10G24G30G19G17G22G 5G14G 6G13G15
    963137.0810   25515329.693           0.000
    281919.0880   22290230.517           0.000
   -133945.7000   20020118.672           0.000
    141784.4740   20592325.525           0.000
    260528.0900   21124279.045           0.000
    335392.6330   24706487.865           0.000
    409801.7140   22086008.868           0.000
   -431804.7030   24593779.080           0.000
   -129491.8020   20220403.434           0.000
   -369496.3850   22781228.840           0.000
 05 10  6 18 27 10.0000000  0 10G24G30G19G17G22G 5G14G 6G13G15
    880749.0320   25510213.717           0.000
    240897.8820   22292983.452           0.000
   -196669.2560   20018741.688           0.000
     93687.8200   20593731.822           0.000
    218275.6770   21126798.454           0.000
    296949.7900   24709730.890           0.000
    375323.3380   22090006.702           0.000
   -511189.1750   24589231.179           0.000
   -192021.6920   20219062.938           0.000
   -444970.5700   22777424.874           0.000
 05 10  6 18 27 20.0000000  0 10G24G30G19G17G22G 5G14G 6G13G15
    798297.5190   25505090.014           0.000
    199856.7050   22295739.535           0.000
   -259371.6470   20017375.865           0.000
     45608.5790   20595148.850           0.000
    175993.2490   21129319.151           0.000
    258459.6520   24712972.627           0.000
    340798.7230   22094002.534           0.000
   -590635.5060   24584678.843           0.000
   -254534.7010   20217732.030           0.000
   -520446.4610   22773629.923           0.000
 05 10  6 18 27 30.0000000  0 10G24G30G19G17G22G 5G14G 6G13G15
    715782.7500   25499962.653           0.000
    158795.7320   22298501.262           0.000
   -322052.7950   20016024.271           0.000
     -2452.9470   20596578.820           0.000
    133680.9570   21131841.771           0.000
    219922.0910   24716214.284           0.000
    306228.0020   22098000.861           0.000
   -670143.3930   24580126.855           0.000
   -317030.6060   20216415.350           0.000
   -595923.7890   22769843.191           0.000
 05 10  6 18 27 40.0000000  0 10G24G30G19G17G22G 5G14G 6G13G15
    633205.0880   25494829.688           0.000
    117715.2740   22301271.406           0.000
   -384712.2950   20014688.393           0.000
    -50496.7030   20598023.647           0.000
     91338.9550   21134371.092           0.000
    181337.1880   24719459.064           0.000
    271611.3620   22102001.596           0.000
   -749712.4540   24575572.553           0.000
   -379509.1270   20215113.671           0.000
   -671402.2330   22766065.592           0.000
 05 10  6 18 27 50.0000000  0 10G24G30G19G17G22G 5G14G 6G13G15
    550565.6270   25489697.361           0.000
     76616.4340   22304047.197           0.000
   -447349.0800   20013365.460           0.000
    -98521.6810   20599481.133           0.000
     48968.3260   21136903.913           0.000
    142705.8910   24722702.480           0.000
    236949.9090   22105999.392           0.000
   -829341.5090   24571015.599           0.000
   -441969.1040   20213824.364           0.000
   -746880.5590   22762298.076           0.000
 05 10  6 18 28  0.0000000  0 10G24G30G19G17G22G 5G14G 6G13G15
    467864.9100   25484564.081           0.000
     35499.7540   22306826.758           0.000
   -509962.6300   20012053.879           0.000
   -146527.2790   20600948.827           0.000
      6569.5110   21139438.357           0.000
    104028.7000   24725943.083           0.000
    202244.0980   22109997.523           0.000
   -909029.9700   24566453.828           0.000
   -504409.9680   20212545.981           0.000
   -822358.2540   22758538.622           0.000
 05 10  6 18 28 10.0000000  0 10G24G30G19G17G22G 5G14G 6G13G15
    385102.4700   25479426.376           0.000
     -5635.2860   22309609.048           0.000
   -572553.4670   20010753.041           0.000
   -194514.0650   20602426.834           0.000
    -35858.0830   21141974.386           0.000
     65305.2010   24729185.842           0.000
    167493.3660   22113996.094           0.000
   -988778.3010   24561888.205           0.000
   -566832.1990   20211277.624           0.000
   -897835.8460   22754786.619           0.000
 05 10  6 18 28 20.0000000  0 10G24G30G19G17G22G 5G14G 6G13G15
    302279.0020   25474284.595           0.000
    -46787.9180   22312396.133           0.000
   -635120.8170   20009465.583           0.000
   -242481.3860   20603917.792           0.000
    -78313.7520   21144514.924           0.000
     26535.8260   24732428.246           0.000
    132698.4060   22117993.594           0.000
  -1068585.5980   24557320.651           0.000
   -629235.0780   20210021.647           0.000
   -973312.5200   22751043.275           0.000
 05 10  6 18 28 30.0000000  0 10G24G30G19G17G22G 5G14G 6G13G15
    219395.0880   25469141.526           0.000
    -87957.6270   22315190.229           0.000
   -697664.0480   20008193.151           0.000
   -290428.7520   20605422.058           0.000
   -120797.1310   21147058.609           0.000
    -12279.0910   24735669.076           0.000
     97859.6560   22121992.239           0.000
  -1148451.3200   24552751.381           0.000
   -691618.0230   20208778.835           0.000
  -1048787.6320   22747310.233           0.000
 05 10  6 18 28 40.0000000  0 10G24G30G19G17G22G 5G14G 6G13G15
    136451.0640   25463992.227           0.000
   -129144.0760   22317989.401           0.000
   -760182.8290   20006932.947           0.000
   -338355.8310   20606937.552           0.000
   -163307.9350   21149604.794           0.000
    -51139.1180   24738908.398           0.000
     62977.3850   22125992.237           0.000
  -1228375.0600   24548180.173           0.000
   -753980.6600   20207548.251           0.000
  -1124260.8090   22743585.558           0.000
 05 10  6 18 28 50.0000000  0 10G24G30G19G17G22G 5G14G 6G13G15
     53446.8830   25458840.558           0.000
   -170347.2490   22320794.644           0.000
   -822677.2340   20005687.116           0.000
   -386262.7020   20608467.274           0.000
   -205846.0820   21152156.908           0.000
    -90044.4900   24742149.642           0.000
     28051.5830   22129992.442           0.000
  -1308356.6950   24543606.453           0.000
   -816323.0450   20206331.038           0.000
  -1199732.0650   22739870.961           0.000
 05 10  6 18 29  0.0000000  0 10G24G30G19G17G22G 5G14G 6G13G15
    -29617.2130   25453686.687           0.000
   -211566.9960   22323605.270           0.000
   -885147.1070   20004454.250           0.000
   -434149.2660   20610009.819           0.000
   -248411.5570   21154711.972           0.000
         0.0000   24745393.264           0.000
     -6917.6620   22133991.589           0.000
  -1388395.9920   24539028.956           0.000
   -878644.8920   20205126.361           0.000
  -1275201.0990   22736164.322           0.000
 05 10  6 18 29 10.0000000  0 10G24G30G19G17G22G 5G14G 6G13G15
   -112740.9930   25448530.558           0.000
   -252803.0430   22326421.221           0.000
   -947592.2190   20003233.721           0.000
   -482015.3690   20611564.129           0.000
   -291004.2510   21157270.214           0.000
    -21397.0450   24748634.485           0.000
    -41930.1790   22137990.195           0.000
  -1468492.6460   24534448.343           0.000
   -940945.9950   20203933.306           0.000
  -1350667.6980   22732465.012           0.000
 05 10  6 18 29 20.0000000  0 10G24G30G19G17G22G 5G14G 6G13G15
   -195922.8330   25443372.311           0.000
   -294053.8620   22329239.919           0.000
  -1010010.9070   20002025.097           0.000
   -529859.4410   20613128.483           0.000
   -333622.5740   21159829.200           0.000
    -60436.3080   24751876.162           0.000
    -76984.4070   22141988.542           0.000
  -1548645.0060   24529863.894           0.000
  -1003224.6580   20202750.438           0.000
  -1426130.2420   22728773.457           0.000
 05 10  6 18 29 30.0000000  0 10G24G30G19G17G22G 5G14G 6G13G15
   -279163.6270   25438209.788           0.000
   -335320.2840   22332063.643           0.000
  -1072404.0370   20000829.511           0.000
   -577682.4450   20614705.876           0.000
   -376267.5220   21162391.495           0.000
    -99520.3910   24755117.142           0.000
   -112081.3080   22145987.337           0.000
  -1628853.8860   24525278.461           0.000
  -1065481.7480   20201580.466           0.000
  -1501589.5700   22725092.222           0.000
 05 10  6 18 29 40.0000000  0 10G24G30G19G17G22G 5G14G 6G13G15
   -362463.6810   25433044.596           0.000
   -376602.6390   22334893.139           0.000
  -1134771.9760   19999646.567           0.000
   -625484.6780   20616294.193           0.000
   -418939.5200   21164957.130           0.000
   -138649.6400   24758355.452           0.000
   -147221.2860   22149984.749           0.000
  -1709119.4640   24520691.503           0.000
  -1127717.6550   20200423.135           0.000
  -1577045.9190   22721418.333           0.000
 05 10  6 18 29 50.0000000  0 10G24G30G19G17G22G 5G14G 6G13G15
   -445820.6420   25427876.639           0.000
   -417898.5740   22337728.743           0.000
  -1197112.3060   19998477.314           0.000
   -673263.8970   20617896.058           0.000
   -461636.2470   21167525.724           0.000
   -177821.9480   24761595.004           0.000
   -182402.0050   22153983.547           0.000
  -1789439.3700   24516101.065           0.000
  -1189929.9940   20199278.780           0.000
  -1652496.8850   22717752.841           0.000
 05 10  6 18 30  0.0000000  0 10G24G30G19G17G22G 5G14G 6G13G15
   -529236.5980   25422703.855           0.000
   -459210.1880   22340568.821           0.000
  -1259427.1190   19997319.833           0.000
   -721022.2710   20619508.694           0.000
   -504359.8330   21170096.503           0.000
   -217039.4240   24764834.165           0.000
   -217625.6440   22157983.099           0.000
  -1869815.5620   24511507.947           0.000
  -1252120.8560   20198145.482           0.000
  -1727944.5430   22714095.974           0.000
 05 10  6 18 30 10.0000000  0 10G24G30G19G17G22G 5G14G 6G13G15
   -612710.9310   25417527.655           0.000
   -500536.8620   22343416.214           0.000
  -1321715.8410   19996175.820           0.000
   -768759.2400   20621134.368           0.000
   -547109.7210   21172672.451           0.000
   -256301.5450   24768073.630           0.000
   -252891.6250   22161983.241           0.000
  -1950247.3920   24506911.412           0.000
  -1314289.5300   20197026.224           0.000
  -1803388.2040   22710449.712           0.000
 05 10  6 18 30 20.0000000  0 10G24G30G19G17G22G 5G14G 6G13G15
   -696241.6490   25412348.220           0.000
   -541876.6070   22346270.102           0.000
  -1383976.4780   19995047.317           0.000
   -816472.8860   20622773.835           0.000
   -589884.0810   21175252.175           0.000
   -295606.4510   24771314.582           0.000
   -288198.0550   22165982.866           0.000
  -2030732.8070   24502313.646           0.000
  -1376434.0450   20195919.900           0.000
  -1878825.9040   22706813.810           0.000
 05 10  6 18 30 30.0000000  0 10G24G30G19G17G22G 5G14G 6G13G15
   -779829.3620   25407167.594           0.000
   -583230.0920   22349128.667           0.000
  -1446209.6890   19993932.076           0.000
   -864163.8730   20624426.135           0.000
   -632683.6440   21177834.286           0.000
   -334954.6920   24774554.916           0.000
   -323545.5990   22169982.160           0.000
  -2111272.3660   24497712.828           0.000
  -1438555.0840   20194825.550           0.000
  -1954258.2240   22703187.591           0.000
 05 10  6 18 30 40.0000000  0 10G24G30G19G17G22G 5G14G 6G13G15
   -863473.3520   25401984.156           0.000
   -624596.6020   22351989.570           0.000
  -1508414.7840   19992827.902           0.000
   -911831.5860   20626087.784           0.000
   -675507.8110   21180417.734           0.000
   -374345.8100   24777793.296           0.000
   -358933.6330   22173980.500           0.000
  -2191865.2960   24493109.198           0.000
  -1500651.8020   20193742.125           0.000
  -2029684.3180   22699567.861           0.000
 05 10  6 18 30 50.0000000  0 10G24G30G19G17G22G 5G14G 6G13G15
   -947172.2060   25396798.099           0.000
   -665974.7080   22354856.870           0.000
  -1570590.2900   19991737.995           0.000
   -959474.5300   20627761.984           0.000
   -718355.1270   21183005.003           0.000
   -413778.3590   24781027.341           0.000
   -394360.8100   22177981.232           0.000
  -2272510.0890   24488504.382           0.000
  -1562722.8770   20192671.392           0.000
  -2105102.8770   22695958.392           0.000
 05 10  6 18 31  0.0000000  0 10G24G30G19G17G22G 5G14G 6G13G15
  -1030925.9360   25391608.606           0.000
   -707364.4240   22357729.462           0.000
  -1632736.2210   19990661.392           0.000
  -1007092.9090   20629449.488           0.000
   -761225.7020   21185596.419           0.000
   -453252.7760   24784263.529           0.000
   -429827.1600   22181982.103           0.000
  -2353206.6840   24483897.129           0.000
  -1624768.2050   20191613.964           0.000
  -2180513.8590   22692358.506           0.000
 05 10  6 18 31 10.0000000  0 10G24G30G19G17G22G 5G14G 6G13G15
  -1114734.5680   25386413.594           0.000
   -748765.8210   22360605.979           0.000
  -1694852.7170   19989594.869           0.000
  -1054686.9380   20631147.501           0.000
   -804119.6300   21188189.042           0.000
   -492769.2960   24787501.067           0.000
   -465332.8590   22185981.892           0.000
  -2433955.0610   24479286.362           0.000
  -1686787.9280   20190567.044           0.000
  -2255917.1970   22688764.694           0.000
 05 10  6 18 31 20.0000000  0 10G24G30G19G17G22G 5G14G 6G13G15
  -1198597.0180   25381217.748           0.000
   -790177.8130   22363488.388           0.000
  -1756938.5870   19988543.824           0.000
  -1102255.4860   20632858.273           0.000
   -847035.9370   21190785.124           0.000
   -532326.5340   24790734.623           0.000
   -500876.8240   22189982.564           0.000
  -2514754.0230   24474674.188           0.000
  -1748781.0100   20189532.741           0.000
  -2331311.7690   22685180.063           0.000
 05 10  6 18 31 30.0000000  0 10G24G30G19G17G22G 5G14G 6G13G15
  -1282514.3030   25376018.270           0.000
   -831601.4070   22366376.894           0.000
  -1818994.8480   19987505.887           0.000
  -1149799.6610   20634582.154           0.000
   -889975.7990   21193385.586           0.000
   -571925.9590   24793970.127           0.000
   -536460.1770   22193981.177           0.000
  -2595604.5710   24470060.241           0.000
  -1810748.3520   20188510.687           0.000
  -2406698.5800   22681605.536           0.000
 05 10  6 18 31 40.0000000  0 10G24G30G19G17G22G 5G14G 6G13G15
  -1366485.5860   25370814.229           0.000
   -873035.7800   22369268.851           0.000
  -1881020.7620   19986479.416           0.000
  -1197318.6780   20636316.784           0.000
   -932938.3840   21195986.781           0.000
   -611566.6430   24797206.507           0.000
   -572082.0750   22197977.089           0.000
  -2676505.7220   24465441.876           0.000
  -1872689.0060   20187500.242           0.000
  -2482076.7700   22678038.324           0.000
 05 10  6 18 31 50.0000000  0 10G24G30G19G17G22G 5G14G 6G13G15
  -1450510.0440   25365609.400           0.000
   -914480.1610   22372167.175           0.000
  -1943015.5650   19985467.609           0.000
  -1244811.8350   20638064.791           0.000
   -975923.0510   21198592.767           0.000
   -651247.9440   24800442.814           0.000
   -607741.8640   22201976.075           0.000
  -2757456.7540   24460821.148           0.000
  -1934602.2410   20186503.174           0.000
  -2557445.5200   22674480.769           0.000
 05 10  6 18 32  0.0000000  0 10G24G30G19G17G22G 5G14G 6G13G15
  -1534588.3110   25360401.758           0.000
   -955935.1790   22375071.128           0.000
  -2004979.8340   19984469.589           0.000
  -1292279.7630   20639824.581           0.000
  -1018930.4230   21201200.949           0.000
   -690970.8910   24803676.593           0.000
   -643440.1870   22205976.255           0.000
  -2838458.0840   24456199.611           0.000
  -1996488.6280   20185519.319           0.000
  -2632805.4590   22670932.421           0.000
 05 10  6 18 32 10.0000000  0 10G24G30G19G17G22G 5G14G 6G13G15
  -1618718.9320   25355193.635           0.000
   -997399.3810   22377980.466           0.000
  -2066912.0650   19983484.966           0.000
  -1339721.1080   20641596.481           0.000
  -1061959.1030   21203812.656           0.000
   -730734.0610   24806907.459           0.000
   -679175.6590   22209975.525           0.000
  -2919508.1740   24451575.588           0.000
  -2058346.7430   20184548.148           0.000
  -2708155.0110   22667392.892           0.000
 05 10  6 18 32 20.0000000  0 10G24G30G19G17G22G 5G14G 6G13G15
  -1702901.6150   25349981.281           0.000
  -1038872.4720   22380892.871           0.000
  -2128811.9970   19982510.709           0.000
  -1387135.6840   20643379.176           0.000
  -1105008.9590   21206425.570           0.000
   -770537.3680   24810139.818           0.000
   -714948.1110   22213973.139           0.000
  -3000606.7550   24446948.624           0.000
  -2120176.4000   20183587.627           0.000
  -2783494.0050   22663859.579           0.000
 05 10  6 18 32 30.0000000  0 10G24G30G19G17G22G 5G14G 6G13G15
  -1787136.7900   25344766.945           0.000
  -1080354.9290   22383811.594           0.000
  -2190680.1120   19981549.494           0.000
  -1434523.7660   20645174.484           0.000
  -1148080.4630   21209041.940           0.000
   -810381.1210   24813371.197           0.000
   -750757.9940   22217972.206           0.000
  -3081754.1980   24442317.387           0.000
  -2181977.8850   20182640.292           0.000
  -2858822.7470   22660336.018           0.000
 05 10  6 18 32 40.0000000  0 10G24G30G19G17G22G 5G14G 6G13G15
  -1871423.7190   25339548.690           0.000
  -1121845.9950   22386736.557           0.000
  -2252515.7450   19980602.247           0.000
  -1481885.0140   20646982.043           0.000
  -1191173.0090   21211661.544           0.000
   -850264.7800   24816601.375           0.000
   -786604.6530   22221971.217           0.000
  -3162949.6150   24437684.807           0.000
  -2243750.4880   20181704.778           0.000
  -2934140.5040   22656823.561           0.000
 05 10  6 18 32 50.0000000  0 10G24G30G19G17G22G 5G14G 6G13G15
  -1955761.9100   25334324.885           0.000
  -1163345.2220   22389667.132           0.000
  -2314318.3910   19979669.053           0.000
  -1529218.9560   20648802.081           0.000
  -1234286.0620   21214284.185           0.000
   -890187.9370   24819832.729           0.000
   -822487.6300   22225970.116           0.000
  -3244192.5230   24433051.973           0.000
  -2305493.7610   20180782.174           0.000
  -3009446.6870   22653319.722           0.000
 05 10  6 18 33  0.0000000  0 10G24G30G19G17G22G 5G14G 6G13G15
  -2040152.1060   25329098.477           0.000
  -1204853.3680   22392602.544           0.000
  -2376088.7530   19978748.854           0.000
  -1576526.3230   20650633.968           0.000
  -1277420.5830   21216909.660           0.000
   -930151.5980   24823063.769           0.000
   -858407.7400   22229968.844           0.000
  -3325483.5500   24428417.822           0.000
  -2367208.4090   20179872.420           0.000
  -3084742.0370   22649825.871           0.000
 05 10  6 18 33 10.0000000  0 10G24G30G19G17G22G 5G14G 6G13G15
  -2124594.1030   25323871.036           0.000
  -1246370.1860   22395541.359           0.000
  -2437826.6460   19977841.501           0.000
  -1623807.0110   20652478.273           0.000
  -1320576.3580   21219538.968           0.000
   -970155.6760   24826291.057           0.000
   -894364.8740   22233967.684           0.000
  -3406822.3950   24423780.778           0.000
  -2428894.2130   20178975.656           0.000
  -3160026.3120   22646342.148           0.000
 05 10  6 18 33 20.0000000  0 10G24G30G19G17G22G 5G14G 6G13G15
  -2209087.3250   25318642.970           0.000
  -1287895.1690   22398487.562           0.000
  -2499531.5650   19976947.546           0.000
  -1671060.5370   20654335.833           0.000
  -1363752.9410   21222170.941           0.000
  -1010199.7390   24829515.145           0.000
   -930358.5280   22237966.472           0.000
  -3488208.5400   24419142.537           0.000
  -2490550.7140   20178091.718           0.000
  -3235298.9450   22642868.389           0.000
 05 10  6 18 33 30.0000000  0 10G24G30G19G17G22G 5G14G 6G13G15
  -2293631.8740   25313410.525           0.000
  -1329428.4300   22401439.259           0.000
  -2561203.5900   19976065.810           0.000
  -1718287.0180   20656203.322           0.000
  -1406950.4780   21224805.832           0.000
  -1050283.9060   24832739.718           0.000
   -966388.8570   22241965.315           0.000
  -3569641.9120   24414500.918           0.000
  -2552177.8890   20177219.712           0.000
  -3310560.0360   22639401.984           0.000
 05 10  6 18 33 40.0000000  0 10G24G30G19G17G22G 5G14G 6G13G15
  -2378226.8730   25308173.852           0.000
  -1370969.0940   22404396.316           0.000
  -2622841.8700   19975198.021           0.000
  -1765485.6900   20658081.896           0.000
  -1450168.2400   21227442.507           0.000
  -1090407.3150   24835965.931           0.000
  -1002455.0590   22245964.082           0.000
  -3651121.5640   24409856.360           0.000
  -2613774.8870   20176359.793           0.000
  -3385808.6560   22635943.801           0.000
 05 10  6 18 33 50.0000000  0 10G24G30G19G17G22G 5G14G 6G13G15
  -2462871.2220   25302934.538           0.000
  -1412516.0730   22407357.028           0.000
  -2684445.3880   19974342.184           0.000
  -1812655.5230   20659972.709           0.000
  -1493405.1730   21230080.117           0.000
  -1130569.1430   24839192.650           0.000
  -1038556.1420   22249961.351           0.000
  -3732646.4200   24405209.590           0.000
  -2675340.5880   20175510.682           0.000
  -3461043.6770   22632494.710           0.000
 05 10  6 18 34  0.0000000  0 10G24G30G19G17G22G 5G14G 6G13G15
  -2547565.1370   25297692.592           0.000
  -1454069.6370   22410323.979           0.000
  -2746014.4520   19973500.172           0.000
  -1859796.7970   20661875.915           0.000
  -1536661.5930   21232722.822           0.000
  -1170769.7310   24842418.455           0.000
  -1074692.3170   22253958.135           0.000
  -3814216.5730   24400560.331           0.000
  -2736875.1270   20174674.965           0.000
  -3536265.2190   22629055.007           0.000
 05 10  6 18 34 10.0000000  0 10G24G30G19G17G22G 5G14G 6G13G15
  -2632307.7050   25292449.453           0.000
  -1495628.8170   22413298.609           0.000
  -2807547.9120   19972672.420           0.000
  -1906908.6780   20663793.811           0.000
  -1579936.6560   21235371.059           0.000
         0.0000   24845636.628           0.000
  -1110862.7890   22257958.877           0.000
  -3895831.0810   24395910.451           0.000
  -2798377.7090   20173854.225           0.000
  -3611472.3530   22625626.130           0.000
 05 10  6 18 34 20.0000000  0 10G24G30G19G17G22G 5G14G 6G13G15
  -2717098.9040   25287201.264           0.000
  -1537193.6870   22416276.345           0.000
  -2869045.8690   19971857.505           0.000
  -1953991.2500   20665722.970           0.000
  -1623230.4160   21238020.542           0.000
  -1088660.9240   24848861.054           0.000
  -1147067.5870   22261958.719           0.000
  -3977489.7880   24391258.096           0.000
  -2859848.3530   20173044.890           0.000
  -3686665.1170   22622205.081           0.000
 05 10  6 18 34 30.0000000  0 10G24G30G19G17G22G 5G14G 6G13G15
  -2801937.7660   25281947.707           0.000
  -1578763.1880   22419256.870           0.000
  -2930507.3380   19971053.820           0.000
  -2001043.6160   20667660.926           0.000
  -1666541.9800   21240670.667           0.000
  -1128974.8180   24852085.550           0.000
  -1183305.7920   22265955.768           0.000
  -4059191.6940   24386604.237           0.000
  -2921286.0960   20172245.498           0.000
  -3761842.4700   22618791.400           0.000
 05 10  6 18 34 40.0000000  0 10G24G30G19G17G22G 5G14G 6G13G15
  -2886824.4440   25276695.853           0.000
  -1620337.5790   22422247.396           0.000
  -2991932.5640   19970267.865           0.000
  -2048066.0480   20669615.038           0.000
  -1709871.7500   21243328.363           0.000
         0.0000   24855311.893           0.000
  -1219577.6530   22269955.522           0.000
  -4140936.9050   24381952.367           0.000
  -2982691.0470   20171463.121           0.000
  -3837004.5820   22615391.728           0.000
 05 10  6 18 34 50.0000000  0 10G24G30G19G17G22G 5G14G 6G13G15
  -2971758.6620   25271435.556           0.000
  -1661916.5610   22425238.925           0.000
  -3053321.2460   19969489.923           0.000
  -2095058.2150   20671575.733           0.000
  -1753219.2920   21245983.625           0.000
  -1073282.8490   24858529.936           0.000
  -1255882.9020   22273948.695           0.000
  -4222725.0270   24377291.626           0.000
  -3044062.8570   20170687.325           0.000
  -3912151.1010   22611995.061           0.000
 05 10  6 18 35  0.0000000  0 10G24G30G19G17G22G 5G14G 6G13G15
  -3056740.0490   25266175.504           0.000
  -1703499.8250   22428238.425           0.000
  -3114673.0390   19968726.249           0.000
  -2142020.0230   20673549.550           0.000
  -1796584.4740   21248642.709           0.000
         0.0000   24861751.800           0.000
  -1292221.3390   22277944.257           0.000
  -4304555.6440   24372629.555           0.000
  -3105401.2980   20169925.940           0.000
  -3987281.7090   22608610.228           0.000
 05 10  6 18 35 10.0000000  0 10G24G30G19G17G22G 5G14G 6G13G15
  -3141767.8770   25260912.367           0.000
  -1745086.6350   22431242.710           0.000
  -3175987.2960   19967975.801           0.000
  -2188950.7490   20675535.735           0.000
  -1839966.6060   21251304.289           0.000
  -1102396.2100   24864971.868           0.000
  -1328592.2560   22281939.740           0.000
  -4386428.0470   24367966.116           0.000
  -3166705.5630   20169176.781           0.000
  -4062395.6400   22605233.329           0.000
 05 10  6 18 35 20.0000000  0 10G24G30G19G17G22G 5G14G 6G13G15
  -3226841.4510   25255652.943           0.000
  -1786676.3050   22434256.861           0.000
  -3237263.2960   19967244.092           0.000
  -2235849.6780   20677540.230           0.000
  -1883365.0610   21253973.875           0.000
         0.0000   24868194.504           0.000
  -1364995.0090   22285941.941           0.000
  -4468341.4280   24363307.392           0.000
  -3227974.9430   20168445.930           0.000
  -4137492.1530   22601871.304           0.000
 05 10  6 18 35 30.0000000  0 10G24G30G19G17G22G 5G14G 6G13G15
  -3311961.3200   25250385.677           0.000
  -1828269.4000   22437269.323           0.000
  -3298501.6170   19966519.852           0.000
  -2282717.4940   20679551.191           0.000
  -1926780.4050   21256642.057           0.000
         0.0000   24871403.145           0.000
  -1401430.2360   22289938.159           0.000
  -4550296.2040   24358642.114           0.000
  -3289209.9010   20167722.691           0.000
  -4212571.7810   22598513.313           0.000
 05 10  6 18 35 40.0000000  0 10G24G30G19G17G22G 5G14G 6G13G15
  -3397127.0240   25245112.509           0.000
  -1869865.4550   22440286.185           0.000
  -3359701.8560   19965807.310           0.000
  -2329553.8600   20681571.133           0.000
  -1970212.3700   21259309.490           0.000
         0.0000   24874612.180           0.000
  -1437897.5530   22293931.768           0.000
  -4632291.9000   24353971.507           0.000
  -3350410.1510   20167008.861           0.000
  -4287634.0650   22595161.155           0.000
 05 10  6 18 35 50.0000000  0 10G24G30G19G17G22G 5G14G 6G13G15
  -3482337.9430   25239839.960           0.000
  -1911463.9260   22443312.108           0.000
  -3420863.4120   19965109.695           0.000
  -2376358.2630   20683606.287           0.000
  -2013660.4530   21261982.405           0.000
  -1134088.7290   24877827.414           0.000
  -1474396.4180   22297926.709           0.000
  -4714327.8650   24349301.517           0.000
  -3411575.0640   20166311.532           0.000
  -4362678.3820   22591821.061           0.000
 05 10  6 18 36  0.0000000  0 10G24G30G19G17G22G 5G14G 6G13G15
  -3567594.4090   25234561.920           0.000
  -1953065.0990   22446343.416           0.000
  -3481986.5900   19964424.906           0.000
  -2423131.0520   20685651.406           0.000
  -2057124.9300   21264657.557           0.000
  -1174732.2580   24881042.452           0.000
  -1510927.1320   22301921.026           0.000
  -4796404.2900   24344630.616           0.000
  -3472704.9080   20165625.885           0.000
  -4437704.9620   22588491.647           0.000
 05 10  6 18 36 10.0000000  0 10G24G30G19G17G22G 5G14G 6G13G15
  -3652896.6930   25229281.137           0.000
  -1994669.3320   22449379.422           0.000
  -3543071.8050   19963753.543           0.000
  -2469872.6860   20687708.806           0.000
  -2100606.2300   21267336.692           0.000
  -1215412.4470   24884254.174           0.000
  -1547490.1690   22305915.891           0.000
  -4878521.4560   24339958.117           0.000
  -3533800.1140   20164952.519           0.000
  -4512714.1640   22585170.079           0.000
 05 10  6 18 36 20.0000000  0 10G24G30G19G17G22G 5G14G 6G13G15
  -3738243.7510   25223999.799           0.000
  -2036275.5290   22452421.455           0.000
  -3604117.8440   19963096.363           0.000
  -2516582.0430   20689779.388           0.000
  -2144103.4150   21270018.705           0.000
  -1256128.3160   24887464.483           0.000
  -1584084.4460   22309911.774           0.000
  -4960678.1870   24335283.632           0.000
  -3594859.4600   20164292.334           0.000
  -4587704.7710   22581858.115           0.000
 05 10  6 18 36 30.0000000  0 10G24G30G19G17G22G 5G14G 6G13G15
  -3823636.4160   25218716.891           0.000
  -2077884.6090   22455468.500           0.000
  -3665125.6660   19962452.495           0.000
  -2563260.1330   20691862.995           0.000
  -2187617.3740   21272703.728           0.000
  -1296881.0590   24890673.651           0.000
  -1620710.9160   22313906.946           0.000
  -5042875.2860   24330606.288           0.000
  -3655883.9120   20163645.318           0.000
  -4662677.6550   22578557.173           0.000
 05 10  6 18 36 40.0000000  0 10G24G30G19G17G22G 5G14G 6G13G15
  -3909073.8200   25213429.958           0.000
  -2119495.6360   22458520.106           0.000
  -3726094.4670   19961820.772           0.000
  -2609906.1890   20693957.745           0.000
  -2231147.3320   21275390.593           0.000
  -1337669.7230   24893882.229           0.000
  -1657368.7730   22317901.099           0.000
  -5125111.7740   24325927.783           0.000
  -3716872.5080   20163009.732           0.000
  -4737631.9070   22575265.800           0.000
 05 10  6 18 36 50.0000000  0 10G24G30G19G17G22G 5G14G 6G13G15
  -3994555.8470   25208140.126           0.000
  -2161108.6350   22461577.970           0.000
  -3787024.1400   19961202.891           0.000
  -2656520.1280   20696064.763           0.000
  -2274693.2870   21278080.710           0.000
  -1378494.4120   24897090.769           0.000
  -1694058.0290   22321895.213           0.000
  -5207387.5480   24321247.236           0.000
  -3777825.1950   20162387.844           0.000
  -4812567.5030   22571983.977           0.000
 05 10  6 18 37  0.0000000  0 10G24G30G19G17G22G 5G14G 6G13G15
  -4080081.6280   25202847.518           0.000
  -2202722.6390   22464641.502           0.000
  -3847913.8130   19960597.832           0.000
  -2703101.2180   20698182.887           0.000
  -2318254.3860   21280774.779           0.000
  -1419354.3800   24900295.676           0.000
  -1730777.7720   22325889.272           0.000
  -5289701.6360   24316565.774           0.000
  -3838741.0150   20161778.635           0.000
  -4887483.4700   22568711.398           0.000
 05 10  6 18 37 10.0000000  0 10G24G30G19G17G22G 5G14G 6G13G15
  -4165650.3270   25197551.910           0.000
  -2244336.8970   22467710.618           0.000
  -3908762.7230   19960006.370           0.000
  -2749648.7360   20700312.890           0.000
  -2361829.9740   21283470.997           0.000
  -1460248.9990   24903499.298           0.000
  -1767527.3010   22329884.908           0.000
  -5372053.1230   24311882.742           0.000
  -3899619.1490   20161182.165           0.000
  -4962378.9790   22565447.409           0.000
 05 10  6 18 37 20.0000000  0 10G24G30G19G17G22G 5G14G 6G13G15
  -4251261.4070   25192253.436           0.000
  -2285950.8850   22470786.169           0.000
  -3969570.2670   19959429.071           0.000
  -2796162.1320   20702455.196           0.000
  -2405419.6020   21286169.930           0.000
  -1501177.8820   24906702.917           0.000
  -1804306.1430   22333881.256           0.000
  -5454441.4400   24307197.130           0.000
  -3960459.2450   20160598.856           0.000
  -5037253.4460   22562192.287           0.000
 05 10  6 18 37 30.0000000  0 10G24G30G19G17G22G 5G14G 6G13G15
  -4336915.3330   25186951.259           0.000
  -2327565.0820   22473866.174           0.000
  -4030336.8810   19958864.238           0.000
  -2842641.9800   20704608.967           0.000
  -2449023.7330   21288869.311           0.000
  -1542141.5120   24909907.268           0.000
  -1841114.8140   22337874.759           0.000
  -5536866.9620   24302510.106           0.000
  -4021261.6610   20160026.869           0.000
  -5112107.3760   22558944.624           0.000
 05 10  6 18 37 40.0000000  0 10G24G30G19G17G22G 5G14G 6G13G15
  -4422610.9290   25181647.344           0.000
  -2369178.3240   22476950.880           0.000
  -4091061.6860   19958312.692           0.000
  -2889087.2470   20706773.592           0.000
  -2492641.2620   21291572.247           0.000
  -1583138.8550   24913111.599           0.000
  -1877952.2050   22341866.525           0.000
  -5619328.4210   24297820.771           0.000
  -4082025.2750   20159466.737           0.000
  -5186939.4960   22555705.955           0.000
 05 10  6 18 37 50.0000000  0 10G24G30G19G17G22G 5G14G 6G13G15
  -4508347.6790   25176342.001           0.000
  -2410790.1240   22480040.168           0.000
  -4151744.2010   19957773.026           0.000
  -2935497.4710   20708948.809           0.000
  -2536271.8150   21294278.335           0.000
  -1624169.7120   24916311.497           0.000
  -1914817.8960   22345858.151           0.000
  -5701825.3390   24293129.865           0.000
  -4142749.5830   20158918.629           0.000
  -5261749.2690   22552477.162           0.000
 05 10  6 18 38  0.0000000  0 10G24G30G19G17G22G 5G14G 6G13G15
  -4594126.4230   25171032.736           0.000
  -2452401.3450   22483134.262           0.000
  -4212385.1910   19957245.893           0.000
  -2981873.3990   20711135.843           0.000
  -2579916.2550   21296985.652           0.000
  -1665234.7380   24919509.333           0.000
  -1951712.7770   22349849.861           0.000
  -5784358.3780   24288436.610           0.000
  -4203435.4250   20158382.195           0.000
  -5336537.5440   22549258.756           0.000
 05 10  6 18 38 10.0000000  0 10G24G30G19G17G22G 5G14G 6G13G15
  -4679946.9170   25165719.293           0.000
  -2494011.7500   22486234.481           0.000
  -4272984.3590   19956733.041           0.000
  -3028215.1220   20713336.014           0.000
  -2623574.4620   21299696.089           0.000
  -1706333.8700   24922706.855           0.000
  -1988636.6640   22353843.403           0.000
  -5866927.3170   24283744.043           0.000
  -4264082.5560   20157860.471           0.000
  -5411304.0690   22546050.196           0.000
 05 10  6 18 38 20.0000000  0 10G24G30G19G17G22G 5G14G 6G13G15
  -4765807.7970   25160404.807           0.000
  -2535620.0280   22489341.098           0.000
  -4333540.3940   19956234.314           0.000
  -3074521.3350   20715550.166           0.000
  -2667245.1570   21302410.347           0.000
  -1747465.9500   24925903.476           0.000
  -2025588.2680   22357836.330           0.000
  -5949530.6630   24279049.574           0.000
  -4324689.6540   20157352.872           0.000
  -5486047.4940   22542851.896           0.000
 05 10  6 18 38 30.0000000  0 10G24G30G19G17G22G 5G14G 6G13G15
  -4851708.8020   25155088.516           0.000
  -2577225.8930   22492452.349           0.000
  -4394053.0880   19955747.089           0.000
  -3120791.8610   20717774.248           0.000
  -2710928.1940   21305126.521           0.000
  -1788630.9600   24929098.006           0.000
  -2062567.4220   22361828.026           0.000
  -6032168.0640   24274351.584           0.000
  -4385256.4310   20156855.488           0.000
  -5560767.5680   22539662.810           0.000
 05 10  6 18 38 40.0000000  0 10G24G30G19G17G22G 5G14G 6G13G15
  -4937648.7030   25149769.797           0.000
  -2618828.2090   22495568.898           0.000
  -4454521.2970   19955273.462           0.000
  -3167025.5680   20720008.349           0.000
  -2754622.5370   21307844.559           0.000
  -1829827.6650   24932291.825           0.000
  -2099572.9430   22365818.437           0.000
  -6114838.3220   24269652.309           0.000
  -4445781.6330   20156371.272           0.000
  -5635463.0210   22536481.311           0.000
 05 10  6 18 38 50.0000000  0 10G24G30G19G17G22G 5G14G 6G13G15
  -5023626.0810   25144446.369           0.000
  -2660425.5240   22498691.757           0.000
  -4514943.5360   19954813.013           0.000
  -3213221.0490   20722255.771           0.000
  -2798326.8330   21310565.330           0.000
  -1871054.7610   24935484.799           0.000
  -2136603.4660   22369809.435           0.000
  -6197539.8990   24264952.619           0.000
  -4506263.8410   20155900.520           0.000
  -5710132.3890   22533309.699           0.000
 05 10  6 18 39  0.0000000  0 10G24G30G19G17G22G 5G14G 6G13G15
  -5109641.8940   25139119.472           0.000
  -2702018.7940   22501819.160           0.000
  -4575320.8580   19954366.266           0.000
  -3259379.3830   20724514.463           0.000
  -2842041.9210   21313287.926           0.000
  -1912313.4310   24938676.307           0.000
  -2173660.0360   22373801.829           0.000
  -6280273.7010   24260251.749           0.000
  -4566704.0740   20155442.326           0.000
  -5784776.6390   22530148.785           0.000
 05 10  6 18 39 10.0000000  0 10G24G30G19G17G22G 5G14G 6G13G15
  -5195696.1200   25133790.390           0.000
  -2743608.0400   22504952.535           0.000
  -4635653.2240   19953932.931           0.000
  -3305500.6340   20726785.566           0.000
  -2885767.8750   21316014.347           0.000
  -1953603.7830   24941865.774           0.000
  -2210742.6530   22377793.898           0.000
  -6363039.5760   24255549.124           0.000
  -4627102.2860   20154996.828           0.000
  -5859395.7050   22526997.562           0.000
 05 10  6 18 39 20.0000000  0 10G24G30G19G17G22G 5G14G 6G13G15
  -5281787.4020   25128459.685           0.000
  -2785191.9450   22508090.582           0.000
  -4695939.4380   19953512.855           0.000
  -3351583.5220   20729069.212           0.000
  -2929503.5570   21318744.869           0.000
  -1994924.4890   24945053.332           0.000
  -2247850.1070   22381785.489           0.000
  -6445836.1800   24250844.876           0.000
  -4687457.2430   20154563.302           0.000
  -5933988.2300   22523855.305           0.000
 05 10  6 18 39 30.0000000  0 10G24G30G19G17G22G 5G14G 6G13G15
  -5367916.3850   25123125.711           0.000
  -2826771.1980   22511234.947           0.000
  -4756180.0970   19953105.678           0.000
  -3397628.8100   20731363.038           0.000
  -2973249.6530   21321476.557           0.000
  -2036276.3780   24948240.052           0.000
  -2284983.0620   22385775.527           0.000
  -6528664.0730   24246138.216           0.000
  -4747769.5850   20154141.529           0.000
  -6008554.8360   22520721.512           0.000
 05 10  6 18 39 40.0000000  0 10G24G30G19G17G22G 5G14G 6G13G15
  -5454082.6670   25117788.330           0.000
  -2868345.3990   22514384.777           0.000
  -4816374.8830   19952711.980           0.000
  -3443636.2520   20733668.626           0.000
  -3017005.9400   21324211.420           0.000
  -2077659.2070   24951426.227           0.000
  -2322141.2250   22389764.591           0.000
  -6611522.7810   24241431.870           0.000
  -4808038.9370   20153732.807           0.000
  -6083095.1500   22517597.048           0.000
 05 10  6 18 39 50.0000000  0 10G24G30G19G17G22G 5G14G 6G13G15
  -5540284.7450   25112448.467           0.000
  -2909913.0430   22517539.567           0.000
  -4876522.2270   19952331.827           0.000
  -3489604.3100   20735986.471           0.000
  -3060770.8040   21326947.523           0.000
  -2119071.4910   24954611.638           0.000
  -2359323.0860   22393753.464           0.000
  -6694410.7330   24236723.616           0.000
  -4868263.7820   20153337.342           0.000
  -6157607.5930   22514482.694           0.000
 05 10  6 18 40  0.0000000  0 10G24G30G19G17G22G 5G14G 6G13G15
  -5626524.2090   25107107.436           0.000
  -2951475.8080   22520699.769           0.000
  -4936623.8650   19951964.241           0.000
  -3535534.7450   20738315.309           0.000
  -3104546.0350   21329686.320           0.000
  -2160515.0640   24957792.732           0.000
  -2396530.3820   22397743.027           0.000
  -6777329.4760   24232014.335           0.000
  -4928445.7210   20152954.732           0.000
  -6232093.7990   22511377.473           0.000
 05 10  6 18 40 10.0000000  0 10G24G30G19G17G22G 5G14G 6G13G15
  -5712801.6500   25101763.308           0.000
  -2993034.2330   22523865.175           0.000
  -4996680.3260   19951609.443           0.000
  -3581428.1540   20740655.934           0.000
  -3148332.2600   21332427.172           0.000
  -2201990.6920   24960973.163           0.000
  -2433763.7120   22401732.070           0.000
  -6860279.4960   24227303.246           0.000
  -4988585.2810   20152584.337           0.000
  -6306554.2640   22508281.034           0.000
 05 10  6 18 40 20.0000000  0 10G24G30G19G17G22G 5G14G 6G13G15
  -5799115.3210   25096417.673           0.000
  -3034586.6230   22527034.082           0.000
  -5056689.9610   19951267.160           0.000
  -3627282.8310   20743007.642           0.000
  -3192127.8590   21335170.953           0.000
  -2243496.6720   24964152.515           0.000
  -2471021.4530   22405720.464           0.000
  -6943259.0220   24222589.219           0.000
  -5048680.8620   20152225.885           0.000
  -6380987.3530   22505194.391           0.000
 05 10  6 18 40 30.0000000  0 10G24G30G19G17G22G 5G14G 6G13G15
  -5885465.9400   25091068.904           0.000
  -3076133.7110   22530209.442           0.000
  -5116653.4360   19950938.056           0.000
  -3673099.8260   20745371.099           0.000
  -3235933.5640   21337917.037           0.000
  -2285033.8710   24967329.879           0.000
  -2508304.3170   22409708.014           0.000
  -7026268.6440   24217875.206           0.000
  -5108733.1310   20151881.756           0.000
  -6455393.6980   22502118.065           0.000
 05 10  6 18 40 40.0000000  0 10G24G30G19G17G22G 5G14G 6G13G15
  -5971853.5100   25085716.083           0.000
  -3117675.5210   22533392.197           0.000
  -5176570.8810   19950622.500           0.000
  -3718879.2250   20747746.386           0.000
  -3279749.5550   21340667.655           0.000
  -2326602.4300   24970506.195           0.000
  -2545612.4210   22413695.232           0.000
  -7109308.3410   24213159.859           0.000
  -5168742.1300   20151549.887           0.000
  -6529773.2770   22499050.994           0.000
 05 10  6 18 40 50.0000000  0 10G24G30G19G17G22G 5G14G 6G13G15
  -6058277.2750   25080360.638           0.000
  -3159211.4140   22536580.341           0.000
  -5236441.5760   19950320.918           0.000
  -3764620.3330   20750133.358           0.000
  -3323575.1900   21343419.654           0.000
  -2368201.8080   24973681.889           0.000
  -2582945.1040   22417681.400           0.000
  -7192377.3330   24208443.033           0.000
  -5228707.1160   20151229.560           0.000
  -6604125.3920   22495992.460           0.000
 05 10  6 18 41  0.0000000  0 10G24G30G19G17G22G 5G14G 6G13G15
  -6144737.5830   25075004.892           0.000
  -3200741.6860   22539772.334           0.000
  -5296265.9090   19950032.772           0.000
  -3810323.4390   20752532.479           0.000
  -3367410.9580   21346173.643           0.000
  -2409832.2580   24976854.852           0.000
  -2620302.7660   22421667.839           0.000
  -7275475.8830   24203724.905           0.000
  -5288628.4690   20150922.670           0.000
  -6678450.2720   22492943.356           0.000
 05 10  6 18 41 10.0000000  0 10G24G30G19G17G22G 5G14G 6G13G15
  -6231234.2350   25069644.260           0.000
  -3242266.1520   22542969.029           0.000
  -5356043.8060   19949756.483           0.000
  -3855988.4980   20754942.025           0.000
  -3411256.5490   21348930.330           0.000
  -2451493.8200   24980026.934           0.000
  -2657685.2250   22425653.256           0.000
  -7358603.6710   24199005.468           0.000
  -5348506.0000   20150627.492           0.000
  -6752747.7940   22489904.534           0.000
 05 10  6 18 41 20.0000000  0 10G24G30G19G17G22G 5G14G 6G13G15
  -6317765.9220   25064278.205           0.000
  -3283783.4830   22546172.463           0.000
  -5415773.8870   19949494.946           0.000
  -3901614.2880   20757363.032           0.000
  -3455110.7520   21351689.034           0.000
  -2493185.2670   24983199.746           0.000
  -2695091.2620   22429640.548           0.000
  -7441759.3430   24194285.186           0.000
  -5408338.4130   20150345.207           0.000
  -6827016.6010   22486875.886           0.000
 05 10  6 18 41 30.0000000  0 10G24G30G19G17G22G 5G14G 6G13G15
  -6404332.9280   25058911.274           0.000
  -3325294.1040   22549380.887           0.000
  -5475456.4660   19949246.269           0.000
  -3947201.2460   20759795.613           0.000
  -3498974.0170   21354450.153           0.000
  -2534906.9130   24986369.536           0.000
  -2732521.2930   22433626.248           0.000
  -7524943.1130   24189564.458           0.000
  -5468126.0610   20150075.782           0.000
  -6901256.9780   22483855.519           0.000
 05 10  6 18 41 40.0000000  0 10G24G30G19G17G22G 5G14G 6G13G15
  -6490935.1630   25053545.466           0.000
  -3366797.8870   22552594.013           0.000
  -5535091.5440   19949009.306           0.000
  -3992749.3240   20762239.476           0.000
  -3542846.3030   21357214.113           0.000
  -2576659.0550   24989534.726           0.000
  -2769975.2300   22437609.780           0.000
  -7608154.8780   24184840.990           0.000
  -5527868.7900   20149819.072           0.000
  -6975468.8310   22480845.863           0.000
 05 10  6 18 41 50.0000000  0 10G24G30G19G17G22G 5G14G 6G13G15
  -6577570.8130   25048177.523           0.000
  -3408293.0450   22555814.303           0.000
  -5594677.3230   19948786.662           0.000
  -4038256.8630   20764696.514           0.000
  -3586725.9260   21359981.232           0.000
  -2618440.0530   24992698.209           0.000
